S. No.,State,District,Location,Longitude,Latitude,Year,pH,EC (µS/cm at 25°C),CO3 (mg/L),HCO3,Cl (mg/L),F (mg/L),SO4,NO3,Total Hardness,Ca (mg/L),Mg (mg/L),Na (mg/L),K (mg/L),TDS (mg/L),WQI,Hardness_Category,Unsafe_pH,Unsafe_EC,Unsafe_CO3,Unsafe_HCO3,Unsafe_Cl,Unsafe_F,Unsafe_SO4,Unsafe_NO3,Unsafe_Overall,Water_Safety,Water_Safety_Label
1,Andaman & Nicobar Islands,North & Middle Andaman,Bakultala,92.8577,12.5043,2023,7.96,395.0,0.0,171.0,14.0,0.18,28.0,8.0,160.0,12.0,32.0,18.0,5.0,252.8,57.303333333333335,Hard,False,False,False,False,False,False,False,False,False,Unsafe,1
2,Andaman & Nicobar Islands,North & Middle Andaman,Baratang (Nilambur),92.767,12.1683,2023,8.19,473.0,0.0,31.0,96.0,0.0,50.0,10.0,135.0,26.0,17.0,39.0,5.0,302.72,49.306666666666665,Moderately Hard,False,False,False,False,False,False,False,False,False,Safe,0
3,Andaman & Nicobar Islands,North & Middle Andaman,Basantipur,92.8737,12.7579,2023,8.19,556.0,0.0,220.0,28.0,0.0,51.0,1.0,230.0,38.0,33.0,22.0,1.0,355.84000000000003,81.25,Hard,False,False,False,False,False,False,False,False,False,Unsafe,1
4,Andaman & Nicobar Islands,North & Middle Andaman,Betapur,92.9434,12.6191,2023,8.07,487.0,0.0,214.0,57.0,0.16,0.0,2.0,95.0,18.0,12.0,68.0,8.0,311.68,35.98,Moderately Hard,False,False,False,False,False,False,False,False,False,Safe,0
5,Andaman & Nicobar Islands,North & Middle Andaman,Dhobidera (Mayabunder),92.8992,12.9099,2023,8.02,567.0,0.0,232.0,39.0,0.13,29.0,11.0,230.0,28.0,39.0,31.0,1.0,362.88,81.23,Hard,False,False,False,False,False,False,False,False,False,Unsafe,1
6,Andaman & Nicobar Islands,North & Middle Andaman,Durgapur,93.0236,13.2765,2023,8.2,526.0,0.0,232.0,25.0,0.38,28.0,0.0,160.0,34.0,18.0,43.0,1.0,336.64,57.82,Hard,False,False,False,False,False,False,False,False,False,Safe,0
7,Andaman & Nicobar Islands,North & Middle Andaman,Haribay,92.8442,13.0023,2023,8.15,233.0,0.0,92.0,25.0,0.0,12.0,3.0,70.0,24.0,2.0,25.0,1.0,149.12,26.826666666666668,Soft,False,False,False,False,False,False,False,False,False,Safe,0
8,Andaman & Nicobar Islands,North & Middle Andaman,Joypur,92.8809,12.6982,2023,8.13,457.0,0.0,201.0,32.0,0.12,26.0,1.0,220.0,14.0,45.0,12.0,0.0,292.48,77.56666666666666,Hard,False,False,False,False,False,False,False,False,False,Unsafe,1
9,Andaman & Nicobar Islands,North & Middle Andaman,Kadamtala,92.775,12.3488,2023,8.09,413.0,0.0,214.0,25.0,0.0,8.0,2.0,180.0,34.0,23.0,13.0,1.0,264.32,64.07333333333334,Hard,False,False,False,False,False,False,False,False,False,Safe,0
10,Andaman & Nicobar Islands,North & Middle Andaman,Kausalyanagar,92.8189,12.5284,2023,8.08,276.0,0.0,122.0,21.0,0.0,13.0,4.0,95.0,24.0,9.0,23.0,3.0,176.64000000000001,35.28,Moderately Hard,False,False,False,False,False,False,False,False,False,Safe,0
11,Andaman & Nicobar Islands,North & Middle Andaman,Keralapuram,93.0135,13.2588,2023,8.18,271.0,0.0,98.0,28.0,0.0,15.0,2.0,105.0,8.0,21.0,15.0,2.0,173.44,38.63,Moderately Hard,False,False,False,False,False,False,False,False,False,Safe,0
12,Andaman & Nicobar Islands,North & Middle Andaman,Kishorinagar (Parangara),92.8839,13.163,2023,8.25,72.0,0.0,31.0,7.0,0.03,1.0,1.0,30.0,6.0,4.0,3.0,1.0,46.08,12.99,Soft,False,False,False,False,False,False,False,False,False,Safe,0
13,Andaman & Nicobar Islands,North & Middle Andaman,Laxmipur,92.964,13.2873,2023,8.12,1081.0,0.0,98.0,163.0,0.69,186.0,0.0,255.0,12.0,55.0,113.0,5.0,691.84,91.31,Hard,False,False,False,False,False,False,False,False,False,Unsafe,1
14,Andaman & Nicobar Islands,North & Middle Andaman,Long Island,92.9248,12.3653,2023,8.14,315.0,0.0,128.0,28.0,0.0,12.0,2.0,130.0,32.0,12.0,11.0,4.0,201.6,47.096666666666664,Moderately Hard,False,False,False,False,False,False,False,False,False,Safe,0
15,Andaman & Nicobar Islands,North & Middle Andaman,Long Island,92.9237,12.3644,2023,8.15,353.0,0.0,159.0,14.0,0.0,30.0,0.0,165.0,12.0,33.0,9.0,0.0,225.92000000000002,58.89333333333334,Hard,False,False,False,False,False,False,False,False,False,Unsafe,1
16,Andaman & Nicobar Islands,North & Middle Andaman,Long Island (Forest Area),92.9231,12.3667,2023,8.17,628.0,0.0,342.0,28.0,0.0,10.0,3.0,320.0,14.0,69.0,7.0,3.0,401.92,111.48333333333333,Very Hard,False,False,False,False,False,False,False,False,False,Unsafe,1
17,Andaman & Nicobar Islands,North & Middle Andaman,Long Island (Sec. School),92.9176,12.3671,2023,8.13,342.0,0.0,177.0,18.0,0.03,7.0,0.0,140.0,24.0,19.0,12.0,0.0,218.88,50.51666666666667,Moderately Hard,False,False,False,False,False,False,False,False,False,Safe,0
18,Andaman & Nicobar Islands,North & Middle Andaman,Milangram,92.9431,13.3148,2023,8.16,247.0,0.0,79.0,39.0,0.02,11.0,1.0,80.0,14.0,11.0,20.0,2.0,158.08,30.209999999999997,Moderately Hard,False,False,False,False,False,False,False,False,False,Safe,0
19,Andaman & Nicobar Islands,North & Middle Andaman,Mohanpur,92.8357,12.9546,2023,7.91,416.0,0.0,201.0,21.0,0.11,2.0,20.0,190.0,34.0,26.0,13.0,3.0,266.24,67.35666666666667,Hard,False,False,False,False,False,False,False,False,False,Safe,0
20,Andaman & Nicobar Islands,North & Middle Andaman,Nabagram,92.9491,13.1555,2023,8.21,298.0,0.0,116.0,35.0,0.0,0.0,2.0,95.0,24.0,9.0,25.0,1.0,190.72,35.39666666666667,Moderately Hard,False,False,False,False,False,False,False,False,False,Safe,0
21,Andaman & Nicobar Islands,North & Middle Andaman,Nimbutala,92.9542,12.4946,2023,8.01,427.0,0.0,195.0,35.0,0.42,13.0,11.0,200.0,16.0,39.0,11.0,3.0,273.28000000000003,70.76,Hard,False,False,False,False,False,False,False,False,False,Unsafe,1
22,Andaman & Nicobar Islands,North & Middle Andaman,Padmanavapuram,92.9493,12.6063,2023,7.91,294.0,0.0,98.0,21.0,0.27,25.0,26.0,70.0,26.0,1.0,37.0,1.0,188.16,26.95,Soft,False,False,False,False,False,False,False,False,False,Safe,0
23,Andaman & Nicobar Islands,North & Middle Andaman,Pahalgaon,92.8532,12.8393,2023,8.03,405.0,0.0,183.0,35.0,0.11,11.0,6.0,190.0,12.0,39.0,12.0,1.0,259.2,67.36,Hard,False,False,False,False,False,False,False,False,False,Unsafe,1
24,Andaman & Nicobar Islands,North & Middle Andaman,Parnashala,92.9043,12.5244,2023,8.08,703.0,0.0,232.0,103.0,0.0,8.0,3.0,230.0,22.0,43.0,60.0,6.0,449.92,81.70333333333333,Hard,False,False,False,False,False,False,False,False,False,Unsafe,1
25,Andaman & Nicobar Islands,North & Middle Andaman,Phooltala Basti,92.7629,12.4118,2023,8.22,541.0,0.0,201.0,28.0,0.16,37.0,13.0,200.0,14.0,40.0,41.0,4.0,346.24,71.21,Hard,False,False,False,False,False,False,False,False,False,Unsafe,1
26,Andaman & Nicobar Islands,North & Middle Andaman,Porlobjig-15,92.7813,12.496,2023,8.21,290.0,0.0,134.0,18.0,0.0,12.0,3.0,115.0,16.0,18.0,13.0,1.0,185.6,42.03666666666667,Moderately Hard,False,False,False,False,False,False,False,False,False,Safe,0
27,Andaman & Nicobar Islands,North & Middle Andaman,Rangat,92.9108,12.5057,2023,8.02,558.0,0.0,268.0,28.0,0.46,14.0,9.0,225.0,24.0,40.0,30.0,5.0,357.12,79.53333333333333,Hard,False,False,False,False,False,False,False,False,False,Unsafe,1
28,Andaman & Nicobar Islands,North & Middle Andaman,Rest Camp,92.8593,12.8328,2023,7.95,441.0,0.0,171.0,35.0,0.42,32.0,8.0,170.0,34.0,21.0,21.0,1.0,282.24,60.78666666666667,Hard,False,False,False,False,False,False,False,False,False,Safe,0
29,Andaman & Nicobar Islands,North & Middle Andaman,Shibpur,93.0421,13.2507,2023,7.81,886.0,0.0,275.0,142.0,0.0,7.0,2.0,215.0,28.0,35.0,107.0,7.0,567.04,77.22333333333333,Hard,False,False,False,False,False,False,False,False,False,Unsafe,1
30,Andaman & Nicobar Islands,North & Middle Andaman,Sitanagar,92.9359,13.2261,2023,8.2,301.0,0.0,92.0,43.0,0.0,16.0,2.0,100.0,16.0,15.0,21.0,1.0,192.64000000000001,37.07,Moderately Hard,False,False,False,False,False,False,False,False,False,Safe,0
31,Andaman & Nicobar Islands,North & Middle Andaman,South Creek (Sundergarh),92.7919,12.1869,2023,8.02,406.0,0.0,140.0,50.0,0.08,31.0,3.0,175.0,18.0,32.0,20.0,2.0,259.84000000000003,62.35999999999999,Hard,False,False,False,False,False,False,False,False,False,Unsafe,1
32,Andaman & Nicobar Islands,North & Middle Andaman,Srinagar,92.8688,13.1399,2023,8.1,513.0,0.0,214.0,74.0,0.0,0.0,2.0,145.0,22.0,22.0,50.0,13.0,328.32,52.74333333333333,Moderately Hard,False,False,False,False,False,False,False,False,False,Unsafe,1
33,Andaman & Nicobar Islands,North & Middle Andaman,Subhasgram,92.9662,13.2432,2023,7.96,1023.0,0.0,354.0,163.0,0.0,0.0,42.0,205.0,28.0,33.0,138.0,21.0,654.72,74.39666666666666,Hard,False,False,False,False,False,False,False,False,False,Unsafe,1
34,Andaman & Nicobar Islands,North & Middle Andaman,Swadeshnagar,92.8924,12.6508,2023,8.23,385.0,0.0,177.0,28.0,0.1,20.0,1.0,170.0,20.0,29.0,13.0,2.0,246.4,60.693333333333335,Hard,False,False,False,False,False,False,False,False,False,Safe,0
35,Andaman & Nicobar Islands,North & Middle Andaman,Tikadera,92.814,12.5228,2023,8.16,271.0,0.0,49.0,32.0,0.0,39.0,2.0,40.0,10.0,4.0,40.0,1.0,173.44,16.956666666666667,Soft,False,False,False,False,False,False,False,False,False,Safe,0
36,Andaman & Nicobar Islands,North & Middle Andaman,Tugapur No. 8,92.8224,12.8196,2023,7.96,358.0,0.0,171.0,21.0,0.04,17.0,2.0,170.0,44.0,15.0,8.0,1.0,229.12,60.51333333333333,Hard,False,False,False,False,False,False,False,False,False,Safe,0
37,Andaman & Nicobar Islands,North & Middle Andaman,Uttara,92.7901,12.328,2023,8.18,405.0,0.0,183.0,18.0,0.07,29.0,1.0,155.0,24.0,23.0,17.0,1.0,259.2,55.74333333333333,Hard,False,False,False,False,False,False,False,False,False,Safe,0
38,Andaman & Nicobar Islands,North & Middle Andaman,Webi (Debipur),92.872,12.8669,2023,8.11,190.0,0.0,37.0,18.0,0.03,12.0,25.0,35.0,8.0,4.0,9.0,36.0,121.60000000000001,15.003333333333332,Soft,False,False,False,False,False,False,False,False,False,Unsafe,1
39,Andaman & Nicobar Islands,South Andaman,6½ No. Forest Camp,92.9671,12.008,2023,8.24,368.0,0.0,128.0,53.0,0.0,0.0,5.0,90.0,20.0,10.0,40.0,5.0,235.52,33.973333333333336,Moderately Hard,False,False,False,False,False,False,False,False,False,Safe,0
40,Andaman & Nicobar Islands,South Andaman,Annikat,92.6482,11.7075,2023,8.24,342.0,0.0,153.0,18.0,0.0,27.0,1.0,145.0,22.0,22.0,16.0,1.0,218.88,52.22,Moderately Hard,False,False,False,False,False,False,False,False,False,Safe,0
41,Andaman & Nicobar Islands,South Andaman,Austinabad (Port Blair),92.7347,11.6351,2023,8.14,278.0,0.0,110.0,28.0,0.05,12.0,0.0,100.0,16.0,15.0,20.0,1.0,177.92000000000002,36.973333333333336,Moderately Hard,False,False,False,False,False,False,False,False,False,Safe,0
42,Andaman & Nicobar Islands,South Andaman,Bambooflat,92.715,11.7055,2023,8.18,515.0,0.0,256.0,32.0,0.14,22.0,0.0,180.0,30.0,26.0,38.0,2.0,329.6,64.44333333333334,Hard,False,False,False,False,False,False,False,False,False,Safe,0
43,Andaman & Nicobar Islands,South Andaman,Beadnabad Tubewell,92.7339,11.5856,2023,8.22,307.0,0.0,116.0,28.0,0.0,5.0,13.0,115.0,24.0,13.0,17.0,4.0,196.48000000000002,42.09666666666667,Moderately Hard,False,False,False,False,False,False,False,False,False,Safe,0
44,Andaman & Nicobar Islands,South Andaman,Bharatpur,93.0384,11.8304,2023,7.98,329.0,0.0,146.0,25.0,0.34,17.0,0.0,145.0,14.0,27.0,12.0,0.0,210.56,52.09,Moderately Hard,False,False,False,False,False,False,False,False,False,Safe,0
45,Andaman & Nicobar Islands,South Andaman,Bharatpur,93.0447,11.8362,2023,7.63,384.0,0.0,134.0,32.0,0.49,25.0,3.0,130.0,18.0,21.0,28.0,4.0,245.76,47.156666666666666,Moderately Hard,False,False,False,False,False,False,False,False,False,Safe,0
46,Andaman & Nicobar Islands,South Andaman,Bindraban,92.6674,11.722,2023,8.23,450.0,0.0,146.0,39.0,0.02,44.0,0.0,175.0,16.0,33.0,26.0,2.0,288.0,62.57666666666666,Hard,False,False,False,False,False,False,False,False,False,Unsafe,1
47,Andaman & Nicobar Islands,South Andaman,Brichganj,92.7377,11.615,2023,8.16,292.0,0.0,159.0,14.0,0.13,7.0,0.0,135.0,24.0,18.0,9.0,0.0,186.88,48.693333333333335,Moderately Hard,False,False,False,False,False,False,False,False,False,Safe,0
48,Andaman & Nicobar Islands,South Andaman,Brookshabad (Port Blair),92.7404,11.638,2023,8.07,526.0,0.0,293.0,21.0,0.09,17.0,0.0,235.0,38.0,34.0,20.0,2.0,336.64,82.77666666666667,Hard,False,False,False,False,False,False,False,False,False,Unsafe,1
49,Andaman & Nicobar Islands,South Andaman,Burmanala,92.7294,11.558,2023,8.27,376.0,0.0,189.0,25.0,0.09,15.0,0.0,155.0,30.0,19.0,19.0,0.0,240.64000000000001,55.67666666666667,Hard,False,False,False,False,False,False,False,False,False,Safe,0
50,Andaman & Nicobar Islands,South Andaman,Calicut,92.7264,11.6074,2023,8.17,394.0,0.0,201.0,21.0,0.08,16.0,0.0,160.0,32.0,19.0,19.0,0.0,252.16,57.370000000000005,Hard,False,False,False,False,False,False,False,False,False,Safe,0
51,Andaman & Nicobar Islands,South Andaman,Calicut Borewell,92.7195,11.6001,2023,8.05,330.0,0.0,104.0,35.0,0.0,21.0,14.0,135.0,22.0,19.0,11.0,4.0,211.20000000000002,48.78333333333333,Moderately Hard,False,False,False,False,False,False,False,False,False,Safe,0
52,Andaman & Nicobar Islands,South Andaman,Chidiyatapu,92.7019,11.5033,2023,8.22,594.0,0.0,268.0,39.0,0.07,23.0,0.0,225.0,36.0,33.0,29.0,1.0,380.16,79.72,Hard,False,False,False,False,False,False,False,False,False,Unsafe,1
53,Andaman & Nicobar Islands,South Andaman,Chouldari 1,92.667,11.6312,2023,8.24,622.0,0.0,256.0,46.0,0.1,53.0,1.0,135.0,26.0,17.0,88.0,1.0,398.08,49.82,Moderately Hard,False,False,False,False,False,False,False,False,False,Safe,0
54,Andaman & Nicobar Islands,South Andaman,Corbyn'S Cove (Port Blair),92.746,11.6425,2023,7.7,713.0,0.0,281.0,78.0,0.13,30.0,0.0,230.0,52.0,24.0,66.0,2.0,456.32,81.61,Hard,False,False,False,False,False,False,False,False,False,Safe,0
55,Andaman & Nicobar Islands,South Andaman,Dandaspoint,92.7074,11.6704,2023,8.27,339.0,0.0,146.0,35.0,0.09,3.0,5.0,150.0,28.0,19.0,12.0,1.0,216.96,53.88666666666666,Hard,False,False,False,False,False,False,False,False,False,Safe,0
56,Andaman & Nicobar Islands,South Andaman,Dhannikhari,92.6671,11.6126,2023,8.24,355.0,0.0,61.0,78.0,0.0,8.0,2.0,70.0,14.0,9.0,45.0,10.0,227.20000000000002,27.263333333333332,Soft,False,False,False,False,False,False,False,False,False,Safe,0
57,Andaman & Nicobar Islands,South Andaman,Dollyganj Chowk,92.7228,11.6343,2023,8.23,591.0,0.0,287.0,21.0,0.18,29.0,0.0,185.0,24.0,30.0,41.0,1.0,378.24,66.38,Hard,False,False,False,False,False,False,False,False,False,Safe,0
58,Andaman & Nicobar Islands,South Andaman,Dolphin Yatri Niwas,93.0112,12.0189,2023,8.08,259.0,0.0,104.0,21.0,0.0,9.0,3.0,80.0,22.0,6.0,18.0,1.0,165.76,30.223333333333333,Moderately Hard,False,False,False,False,False,False,False,False,False,Safe,0
59,Andaman & Nicobar Islands,South Andaman,Ferrarganj,92.6531,11.7175,2023,8.09,1004.0,0.0,494.0,89.0,0.52,0.0,3.0,300.0,34.0,52.0,104.0,12.0,642.5600000000001,106.04333333333334,Very Hard,False,False,False,False,False,False,False,False,False,Unsafe,1
60,Andaman & Nicobar Islands,South Andaman,Garacharma,92.7095,11.6137,2023,8.0,695.0,0.0,299.0,60.0,0.15,29.0,0.0,250.0,42.0,35.0,37.0,3.0,444.8,88.31666666666666,Hard,False,False,False,False,False,False,False,False,False,Unsafe,1
61,Andaman & Nicobar Islands,South Andaman,Govindanagar Vill No - 1,92.9972,12.0302,2023,7.92,809.0,0.0,226.0,135.0,0.09,25.0,4.0,215.0,30.0,34.0,98.0,3.0,517.76,77.00333333333333,Hard,False,False,False,False,False,False,False,False,False,Unsafe,1
62,Andaman & Nicobar Islands,South Andaman,Govindanagar Vill No - 3,93.0036,12.0232,2023,8.06,413.0,0.0,214.0,25.0,0.57,8.0,2.0,125.0,18.0,19.0,38.0,3.0,264.32,45.73,Moderately Hard,False,False,False,False,False,False,False,False,False,Safe,0
63,Andaman & Nicobar Islands,South Andaman,Gupta Para,92.6587,11.5599,2023,8.2,371.0,0.0,153.0,18.0,0.0,32.0,2.0,140.0,24.0,19.0,22.0,2.0,237.44,50.63666666666666,Moderately Hard,False,False,False,False,False,False,False,False,False,Safe,0
64,Andaman & Nicobar Islands,South Andaman,Haddo – 2,92.7279,11.7685,2023,8.27,617.0,0.0,214.0,82.0,0.07,27.0,1.0,240.0,16.0,49.0,34.0,1.0,394.88,84.81333333333333,Hard,False,False,False,False,False,False,False,False,False,Unsafe,1
65,Andaman & Nicobar Islands,South Andaman,Hasmatabad,92.6455,11.5944,2023,8.11,343.0,0.0,183.0,18.0,0.09,5.0,3.0,160.0,30.0,21.0,12.0,2.0,219.52,57.18,Hard,False,False,False,False,False,False,False,False,False,Safe,0
66,Andaman & Nicobar Islands,South Andaman,Havelock Island Jetty,92.981,12.0413,2023,7.85,1169.0,0.0,226.0,135.0,0.6,242.0,2.0,335.0,26.0,66.0,118.0,7.0,748.16,118.18,Very Hard,False,False,False,False,False,False,True,False,True,Unsafe,1
67,Andaman & Nicobar Islands,South Andaman,Herbertabad,92.6151,11.7082,2023,8.23,198.0,0.0,92.0,18.0,0.15,4.0,2.0,80.0,20.0,7.0,9.0,2.0,126.72,30.070000000000004,Moderately Hard,False,False,False,False,False,False,False,False,False,Safe,0
68,Andaman & Nicobar Islands,South Andaman,Hope Town (Maremon Temple),92.7272,11.6981,2023,8.29,635.0,0.0,171.0,78.0,0.46,47.0,28.0,235.0,24.0,43.0,38.0,8.0,406.40000000000003,83.21333333333332,Hard,False,False,False,False,False,False,False,False,False,Unsafe,1
69,Andaman & Nicobar Islands,South Andaman,Junglighat (Vip Road),92.7352,11.6576,2023,8.29,461.0,0.0,153.0,60.0,0.11,27.0,0.0,170.0,30.0,23.0,28.0,1.0,295.04,60.96666666666667,Hard,False,False,False,False,False,False,False,False,False,Safe,0
70,Andaman & Nicobar Islands,South Andaman,Kalapathar,93.0059,11.9749,2023,7.97,852.0,0.0,195.0,174.0,0.0,0.0,7.0,200.0,18.0,38.0,106.0,5.0,545.28,72.16333333333334,Hard,False,False,False,False,False,False,False,False,False,Unsafe,1
71,Andaman & Nicobar Islands,South Andaman,Kanyapuram,92.7069,11.7367,2023,8.09,504.0,0.0,189.0,50.0,0.35,17.0,14.0,200.0,24.0,34.0,20.0,1.0,322.56,71.04333333333334,Hard,False,False,False,False,False,False,False,False,False,Unsafe,1
72,Andaman & Nicobar Islands,South Andaman,Kodiaghat,92.7277,11.5452,2023,8.14,278.0,0.0,122.0,18.0,0.07,4.0,0.0,105.0,30.0,7.0,12.0,0.0,177.92000000000002,38.64,Moderately Hard,False,False,False,False,False,False,False,False,False,Safe,0
73,Andaman & Nicobar Islands,South Andaman,Krishnanagar,92.9766,12.0018,2023,8.1,368.0,0.0,171.0,25.0,0.22,20.0,2.0,150.0,24.0,22.0,20.0,1.0,235.52,53.92666666666667,Hard,False,False,False,False,False,False,False,False,False,Safe,0
74,Andaman & Nicobar Islands,South Andaman,Lamba Line,92.7495,11.6593,2023,8.16,389.0,0.0,110.0,82.0,0.0,0.0,2.0,115.0,8.0,23.0,42.0,5.0,248.96,42.35,Moderately Hard,False,False,False,False,False,False,False,False,False,Safe,0
75,Andaman & Nicobar Islands,South Andaman,Laxmanpur,93.0171,11.832,2023,8.12,324.0,0.0,153.0,25.0,0.42,0.0,1.0,60.0,18.0,4.0,45.0,2.0,207.36,23.786666666666665,Soft,False,False,False,False,False,False,False,False,False,Safe,0
76,Andaman & Nicobar Islands,South Andaman,Light House,92.7378,11.6681,2023,8.22,812.0,0.0,390.0,50.0,0.38,27.0,2.0,200.0,12.0,41.0,99.0,4.0,519.6800000000001,72.11333333333333,Hard,False,False,False,False,False,False,False,False,False,Unsafe,1
77,Andaman & Nicobar Islands,South Andaman,Mamyo,92.633,11.5979,2023,8.24,167.0,0.0,61.0,11.0,0.0,11.0,3.0,50.0,18.0,1.0,12.0,3.0,106.88,19.97,Soft,False,False,False,False,False,False,False,False,False,Safe,0
78,Andaman & Nicobar Islands,South Andaman,Manglutan,92.6602,11.5714,2023,8.09,129.0,0.0,24.0,14.0,0.25,17.0,3.0,45.0,8.0,6.0,8.0,0.0,82.56,18.126666666666665,Soft,False,False,False,False,False,False,False,False,False,Safe,0
79,Andaman & Nicobar Islands,South Andaman,Manjeri,,11.5393,2023,8.3,732.0,0.0,336.0,39.0,0.41,33.0,10.0,295.0,16.0,62.0,30.0,5.0,468.48,103.54,Hard,False,False,False,False,False,False,False,False,False,Unsafe,1
80,Andaman & Nicobar Islands,South Andaman,Mannarghat,92.7061,11.7685,2023,8.13,397.0,0.0,159.0,14.0,0.3,50.0,15.0,155.0,18.0,27.0,22.0,1.0,254.08,55.699999999999996,Hard,False,False,False,False,False,False,False,False,False,Safe,0
81,Andaman & Nicobar Islands,South Andaman,Marina Park,92.7463,11.6711,2023,7.84,418.0,0.0,195.0,25.0,0.24,21.0,0.0,180.0,22.0,30.0,22.0,1.0,267.52,64.00666666666667,Hard,False,False,False,False,False,False,False,False,False,Safe,0
82,Andaman & Nicobar Islands,South Andaman,Mile Tilak,92.6557,11.7947,2023,8.21,766.0,0.0,305.0,82.0,0.0,28.0,1.0,170.0,18.0,30.0,100.0,7.0,490.24,61.95666666666667,Hard,False,False,False,False,False,False,False,False,False,Safe,0
83,Andaman & Nicobar Islands,South Andaman,Mithakhari,92.6734,11.6681,2023,8.26,1674.0,0.0,464.0,230.0,0.0,152.0,10.0,320.0,20.0,66.0,247.0,6.0,1071.3600000000001,115.0,Very Hard,False,True,False,False,False,False,False,False,True,Unsafe,1
84,Andaman & Nicobar Islands,South Andaman,Mount Harriyat,92.7326,11.7194,2023,8.23,123.0,0.0,43.0,11.0,0.07,5.0,8.0,40.0,12.0,2.0,10.0,2.0,78.72,16.486666666666668,Soft,False,False,False,False,False,False,False,False,False,Safe,0
85,Andaman & Nicobar Islands,South Andaman,Namunagar,92.6802,11.6905,2023,8.19,412.0,0.0,165.0,32.0,0.18,34.0,2.0,175.0,16.0,33.0,15.0,2.0,263.68,62.43666666666667,Hard,False,False,False,False,False,False,False,False,False,Unsafe,1
86,Andaman & Nicobar Islands,South Andaman,Nayasahar,92.6767,11.579,2023,8.22,252.0,0.0,73.0,35.0,0.0,0.0,9.0,80.0,28.0,2.0,16.0,2.0,161.28,30.246666666666666,Moderately Hard,False,False,False,False,False,False,False,False,False,Safe,0
87,Andaman & Nicobar Islands,South Andaman,Neil Kendra,93.0293,11.8332,2023,8.12,460.0,0.0,177.0,71.0,0.0,0.0,2.0,155.0,16.0,28.0,38.0,6.0,294.40000000000003,55.906666666666666,Hard,False,False,False,False,False,False,False,False,False,Safe,0
88,Andaman & Nicobar Islands,South Andaman,New Bimliton,92.6963,11.5713,2023,8.17,439.0,0.0,110.0,53.0,0.0,47.0,0.0,150.0,14.0,28.0,27.0,5.0,280.96,54.18666666666667,Hard,False,False,False,False,False,False,False,False,False,Safe,0
89,Andaman & Nicobar Islands,South Andaman,Ograbraj,92.6612,11.6555,2023,7.7,2532.0,0.0,531.0,606.0,0.28,92.0,1.0,460.0,76.0,66.0,394.0,25.0,1620.48,164.34,Very Hard,False,True,False,True,True,False,False,False,True,Unsafe,1
90,Andaman & Nicobar Islands,South Andaman,Pearl Park Resort,93.0144,11.8454,2023,8.03,485.0,0.0,250.0,18.0,0.38,24.0,2.0,235.0,18.0,46.0,11.0,0.0,310.40000000000003,82.62666666666667,Hard,False,False,False,False,False,False,False,False,False,Unsafe,1
91,Andaman & Nicobar Islands,South Andaman,Port Blair,92.744,11.6706,2023,8.04,818.0,0.0,323.0,64.0,0.14,66.0,12.0,300.0,56.0,39.0,61.0,11.0,523.52,105.40666666666668,Very Hard,False,False,False,False,False,False,False,False,False,Unsafe,1
92,Andaman & Nicobar Islands,South Andaman,Port Blair (Dobhi Well),92.7349,11.671,2023,8.04,577.0,0.0,281.0,25.0,0.21,30.0,0.0,220.0,30.0,35.0,28.0,0.0,369.28000000000003,77.93666666666667,Hard,False,False,False,False,False,False,False,False,False,Unsafe,1
93,Andaman & Nicobar Islands,South Andaman,Port Mout,92.6599,11.6433,2023,8.03,388.0,0.0,189.0,21.0,0.24,15.0,5.0,185.0,26.0,29.0,9.0,2.0,248.32,65.63666666666667,Hard,False,False,False,False,False,False,False,False,False,Safe,0
94,Andaman & Nicobar Islands,South Andaman,Radhanagar,92.9536,11.9918,2023,8.03,509.0,0.0,195.0,50.0,0.3,28.0,0.0,200.0,20.0,36.0,24.0,4.0,325.76,71.04,Hard,False,False,False,False,False,False,False,False,False,Unsafe,1
95,Andaman & Nicobar Islands,South Andaman,Ramnagar,93.0453,11.8172,2023,8.22,380.0,0.0,134.0,53.0,0.0,12.0,0.0,150.0,30.0,18.0,16.0,3.0,243.20000000000002,54.00666666666667,Hard,False,False,False,False,False,False,False,False,False,Safe,0
96,Andaman & Nicobar Islands,South Andaman,Rangachang,92.737,11.5793,2023,7.99,418.0,0.0,214.0,21.0,0.0,6.0,2.0,150.0,28.0,19.0,31.0,2.0,267.52,54.056666666666665,Hard,False,False,False,False,False,False,False,False,False,Safe,0
97,Andaman & Nicobar Islands,South Andaman,Ross Island,92.7638,11.6758,2023,8.08,768.0,0.0,238.0,103.0,0.37,32.0,16.0,190.0,42.0,21.0,100.0,3.0,491.52,68.58666666666666,Hard,False,False,False,False,False,False,False,False,False,Safe,0
98,Andaman & Nicobar Islands,South Andaman,Saitankhari,92.6661,11.7172,2023,8.2,491.0,0.0,232.0,39.0,0.16,21.0,0.0,215.0,38.0,29.0,19.0,2.0,314.24,76.03666666666668,Hard,False,False,False,False,False,False,False,False,False,Safe,0
99,Andaman & Nicobar Islands,South Andaman,Shadipur (Port Blair),92.7435,11.6565,2023,7.96,592.0,0.0,262.0,46.0,0.18,31.0,10.0,210.0,36.0,29.0,44.0,4.0,378.88,74.62666666666667,Hard,False,False,False,False,False,False,False,False,False,Safe,0
100,Andaman & Nicobar Islands,South Andaman,Shoal  Bay – 8 No.,92.7172,11.8133,2023,8.01,144.0,0.0,43.0,21.0,0.17,7.0,0.0,40.0,6.0,6.0,13.0,1.0,92.16,16.483333333333334,Soft,False,False,False,False,False,False,False,False,False,Safe,0
101,Andaman & Nicobar Islands,South Andaman,Shoal  Bay– 12 No.,92.7303,11.8472,2023,7.98,340.0,0.0,116.0,46.0,0.07,0.0,2.0,65.0,18.0,5.0,46.0,1.0,217.6,25.459999999999997,Soft,False,False,False,False,False,False,False,False,False,Safe,0
102,Andaman & Nicobar Islands,South Andaman,Shoal  Bay– 15 No.,92.7364,11.8656,2023,8.13,202.0,0.0,79.0,21.0,0.0,6.0,1.0,90.0,20.0,10.0,7.0,1.0,129.28,33.38333333333333,Moderately Hard,False,False,False,False,False,False,False,False,False,Safe,0
103,Andaman & Nicobar Islands,South Andaman,Sippighat,92.6857,11.6032,2023,7.89,624.0,0.0,281.0,64.0,0.1,6.0,1.0,250.0,56.0,27.0,39.0,2.0,399.36,88.04333333333334,Hard,False,False,False,False,False,False,False,False,False,Safe,0
104,Andaman & Nicobar Islands,South Andaman,Sitanagar,93.0608,11.8201,2023,7.96,615.0,0.0,116.0,99.0,0.01,49.0,0.0,170.0,32.0,22.0,61.0,3.0,393.6,61.370000000000005,Hard,False,False,False,False,False,False,False,False,False,Safe,0
105,Andaman & Nicobar Islands,South Andaman,South Point (Port Blair),92.7538,11.6641,2023,8.29,420.0,0.0,220.0,32.0,0.05,5.0,0.0,165.0,30.0,22.0,26.0,2.0,268.8,59.163333333333334,Hard,False,False,False,False,False,False,False,False,False,Safe,0
106,Andaman & Nicobar Islands,South Andaman,Steuwartganj,92.7097,11.7242,2023,8.22,506.0,0.0,244.0,14.0,0.0,42.0,0.0,230.0,22.0,43.0,11.0,3.0,323.84000000000003,81.09333333333333,Hard,False,False,False,False,False,False,False,False,False,Unsafe,1
107,Andaman & Nicobar Islands,South Andaman,Teylarabad,92.7009,11.6073,2023,8.28,260.0,0.0,92.0,35.0,0.0,0.0,3.0,85.0,16.0,11.0,18.0,7.0,166.4,31.959999999999997,Moderately Hard,False,False,False,False,False,False,False,False,False,Safe,0
108,Andaman & Nicobar Islands,South Andaman,Tirur,92.6156,11.7338,2023,8.07,175.0,0.0,61.0,28.0,0.39,3.0,2.0,50.0,8.0,7.0,19.0,2.0,112.0,19.94,Soft,False,False,False,False,False,False,False,False,False,Safe,0
109,Andaman & Nicobar Islands,South Andaman,Tushnabad,92.6362,11.6791,2023,8.22,838.0,0.0,104.0,53.0,0.3,231.0,14.0,200.0,16.0,39.0,101.0,2.0,536.32,72.2,Hard,False,False,False,False,False,False,True,False,True,Unsafe,1
110,Andaman & Nicobar Islands,South Andaman,Vijaynagar,93.0093,11.9992,2023,8.03,539.0,0.0,140.0,103.0,0.0,0.0,5.0,155.0,20.0,26.0,56.0,5.0,344.96,56.13999999999999,Hard,False,False,False,False,False,False,False,False,False,Safe,0
111,Andaman & Nicobar Islands,South Andaman,Wandur – 2,92.6166,11.5878,2023,8.3,1910.0,0.0,695.0,245.0,0.34,42.0,12.0,365.0,50.0,58.0,242.0,12.0,1222.4,130.79999999999998,Very Hard,False,True,False,True,False,False,False,False,True,Unsafe,1
112,Andaman & Nicobar Islands,South Andaman,Wimberleyganj,92.7072,11.7403,2023,8.0,451.0,0.0,214.0,18.0,0.09,28.0,1.0,165.0,26.0,24.0,29.0,4.0,288.64,59.169999999999995,Hard,False,False,False,False,False,False,False,False,False,Safe,0
113,Andaman & Nicobar Islands,South Andaman,Wrightmyo,92.7087,11.7793,2023,8.21,75.0,0.0,18.0,7.0,0.0,9.0,1.0,15.0,4.0,1.0,7.0,3.0,48.0,7.986666666666667,Soft,False,False,False,False,False,False,False,False,False,Safe,0
114,Arunachal Pradesh,Changlang,Jairampur,96.0144,27.3561,2023,7.29,265.0,0.0,165.0,23.0,0.08,21.0,0.0,160.0,32.0,19.0,11.0,4.0,169.6,56.64666666666667,Hard,False,False,False,False,False,False,False,False,False,Safe,0
115,Arunachal Pradesh,Changlang,Namchik,95.972,27.4146,2023,7.29,279.0,0.0,165.0,40.0,0.07,17.0,0.0,155.0,30.0,19.0,12.0,4.0,178.56,55.02666666666667,Hard,False,False,False,False,False,False,False,False,False,Safe,0
116,Arunachal Pradesh,Changlang,Namphai,96.1086,27.4461,2023,7.26,261.0,0.0,177.0,10.0,0.06,18.0,0.0,150.0,36.0,15.0,12.0,4.0,167.04,53.29,Hard,False,False,False,False,False,False,False,False,False,Safe,0
117,Arunachal Pradesh,Changlang,Newlisan Kharsang,96.0418,27.4269,2023,7.24,260.0,0.0,159.0,23.0,0.06,18.0,0.0,150.0,38.0,13.0,12.0,4.0,166.4,53.28,Hard,False,False,False,False,False,False,False,False,False,Safe,0
118,Arunachal Pradesh,East Siang,Pasighat New,95.3358,28.0362,2023,7.99,466.0,0.0,232.0,27.0,0.07,31.0,2.0,230.0,58.0,21.0,13.0,40.0,298.24,80.88333333333334,Hard,False,False,False,False,False,False,False,False,False,Unsafe,1
119,Arunachal Pradesh,East Siang,Oyan,95.3183,27.8902,2023,7.9,469.0,0.0,238.0,36.0,0.06,38.0,3.0,225.0,58.0,19.0,13.0,40.0,300.16,79.19666666666667,Hard,False,False,False,False,False,False,False,False,False,Unsafe,1
120,Arunachal Pradesh,East Siang,Ruksin,95.2182,27.8378,2023,7.83,465.0,0.0,214.0,36.0,0.05,22.0,2.0,220.0,54.0,21.0,13.0,40.0,297.6,77.49333333333333,Hard,False,False,False,False,False,False,False,False,False,Unsafe,1
121,Arunachal Pradesh,Lohit,Lathow,95.9098,27.7395,2023,7.29,271.0,0.0,165.0,23.0,0.05,18.0,0.0,165.0,40.0,16.0,12.0,4.0,173.44,58.333333333333336,Hard,False,False,False,False,False,False,False,False,False,Safe,0
122,Arunachal Pradesh,Papumpare,Banderedewa I,93.8258,27.1053,2023,7.78,204.0,0.0,147.0,17.0,0.03,6.0,5.0,130.0,44.0,5.0,10.0,3.0,130.56,46.60666666666666,Moderately Hard,False,False,False,False,False,False,False,False,False,Safe,0
123,Arunachal Pradesh,Tirap,Deomali,95.4628,27.1966,2023,7.74,216.0,0.0,140.0,17.0,0.03,6.0,7.0,155.0,38.0,15.0,11.0,3.0,138.24,54.96666666666667,Hard,False,False,False,False,False,False,False,False,False,Safe,0
124,Arunachal Pradesh,Tirap,Borduria,95.4131,27.1152,2023,7.68,212.0,0.0,147.0,17.0,0.03,8.0,8.0,95.0,34.0,2.0,15.0,4.0,135.68,34.93333333333333,Moderately Hard,False,False,False,False,False,False,False,False,False,Safe,0
125,Arunachal Pradesh,Tirap,Hukanjuri,95.4377,27.1258,2023,7.73,212.0,0.0,147.0,10.0,0.03,6.0,7.0,125.0,30.0,12.0,11.0,3.0,135.68,44.949999999999996,Moderately Hard,False,False,False,False,False,False,False,False,False,Safe,0
126,Assam,Baksa,Anandapur C-Block,91.4042,26.68,2023,7.63,149.0,0.0,79.0,10.0,0.07,9.0,4.0,60.0,18.0,4.0,5.0,13.0,95.36,23.040000000000003,Soft,False,False,False,False,False,False,False,False,False,Unsafe,1
127,Assam,Baksa,Bhebla,91.2393,26.6506,2023,7.76,625.0,0.0,165.0,17.0,0.16,6.0,4.0,115.0,22.0,15.0,7.0,30.0,400.0,43.00333333333333,Moderately Hard,False,False,False,False,False,False,False,False,False,Unsafe,1
128,Assam,Baksa,Deusunga Ambarishnagar,91.7078,26.7566,2023,7.47,384.0,0.0,256.0,13.0,0.06,24.0,2.0,230.0,60.0,19.0,16.0,28.0,245.76,80.43666666666667,Hard,False,False,False,False,False,False,False,False,False,Unsafe,1
129,Assam,Baksa,Gyati Gaon,90.9992,26.6594,2023,7.55,234.0,0.0,165.0,10.0,0.04,9.0,1.0,140.0,30.0,16.0,15.0,15.0,149.76,49.96333333333333,Moderately Hard,False,False,False,False,False,False,False,False,False,Unsafe,1
130,Assam,Baksa,Hadukata,91.1004,26.6086,2023,6.55,156.0,0.0,98.0,17.0,0.04,1.0,1.0,60.0,16.0,5.0,13.0,28.0,99.84,22.703333333333333,Soft,False,False,False,False,False,False,False,False,False,Unsafe,1
131,Assam,Baksa,Kumarikata,91.5561,26.7316,2023,7.48,646.0,0.0,287.0,17.0,0.1,17.0,8.0,235.0,66.0,17.0,12.0,14.0,413.44,82.98,Hard,False,False,False,False,False,False,False,False,False,Unsafe,1
132,Assam,Baksa,Lokpala,91.3984,26.6203,2023,6.8,121.0,0.0,67.0,20.0,0.04,8.0,4.0,40.0,14.0,1.0,20.0,9.0,77.44,16.003333333333334,Soft,False,False,False,False,False,False,False,False,False,Safe,0
133,Assam,Baksa,Naukata,91.7233,26.647,2023,7.25,401.0,0.0,269.0,13.0,0.04,19.0,2.0,230.0,46.0,28.0,16.0,27.0,256.64,80.42,Hard,False,False,False,False,False,False,False,False,False,Unsafe,1
134,Assam,Baksa,Simla,91.0442,26.6498,2023,7.76,532.0,0.0,305.0,43.0,0.14,28.0,18.0,205.0,44.0,23.0,28.0,76.0,340.48,72.69333333333334,Hard,False,False,False,False,False,False,False,False,False,Unsafe,1
135,Assam,Baksa,Sonapur (Doomni),91.3065,26.7137,2023,6.8,414.0,0.0,122.0,43.0,0.03,32.0,34.0,135.0,34.0,12.0,22.0,20.0,264.96,48.64666666666667,Moderately Hard,False,False,False,False,False,False,False,False,False,Unsafe,1
136,Assam,Baksa,Tamulpur,91.5709,26.6289,2023,7.19,152.0,0.0,110.0,13.0,0.05,2.0,1.0,90.0,28.0,5.0,10.0,18.0,97.28,32.903333333333336,Moderately Hard,False,False,False,False,False,False,False,False,False,Unsafe,1
137,Assam,Bongaigaon,Baitamari,90.5175,26.3472,2023,7.19,148.0,0.0,79.0,17.0,0.06,10.0,5.0,65.0,18.0,5.0,8.0,5.0,94.72,24.55666666666667,Soft,False,False,False,False,False,False,False,False,False,Safe,0
138,Assam,Bongaigaon,Manikpur,90.8017,26.4686,2023,6.79,381.0,0.0,140.0,40.0,0.05,38.0,3.0,115.0,40.0,4.0,35.0,15.0,243.84,41.86666666666667,Moderately Hard,False,False,False,False,False,False,False,False,False,Unsafe,1
139,Assam,Bongaigaon,Medhipara Deo,90.631,26.3483,2023,6.83,119.0,0.0,79.0,7.0,0.04,1.0,2.0,60.0,4.0,12.0,4.0,20.0,76.16,22.673333333333332,Soft,False,False,False,False,False,False,False,False,False,Unsafe,1
140,Assam,Cachar,Silcoorie,92.7861,24.7261,2023,7.52,304.0,0.0,31.0,56.0,0.01,26.0,13.0,50.0,6.0,8.0,33.0,26.0,194.56,20.186666666666667,Soft,False,False,False,False,False,False,False,False,False,Unsafe,1
141,Assam,Cachar,Digharkhal,92.5128,24.9992,2023,6.37,178.0,0.0,37.0,23.0,0.07,24.0,17.0,55.0,14.0,5.0,21.0,3.0,113.92,21.05,Soft,True,False,False,False,False,False,False,False,True,Unsafe,1
142,Assam,Cachar,Poilapul,93.1247,24.8319,2023,6.24,192.0,0.0,61.0,40.0,0.1,9.0,7.0,50.0,16.0,2.0,21.0,7.0,122.88,19.386666666666667,Soft,True,False,False,False,False,False,False,False,True,Unsafe,1
143,Assam,Cachar,Tarapur,92.9794,24.8297,2023,6.63,210.0,0.0,18.0,36.0,0.0,12.0,42.0,80.0,18.0,8.0,5.0,12.0,134.4,29.576666666666668,Moderately Hard,False,False,False,False,False,False,False,False,False,Safe,0
144,Assam,Cachar,Kalain,92.4086,24.9681,2023,7.08,270.0,0.0,122.0,23.0,0.31,0.0,21.0,140.0,48.0,5.0,14.0,9.0,172.8,49.92666666666667,Moderately Hard,False,False,False,False,False,False,False,False,False,Safe,0
145,Assam,Cachar,Hilara,92.5906,24.9275,2023,6.46,334.0,0.0,85.0,76.0,0.08,5.0,5.0,90.0,22.0,8.0,45.0,2.0,213.76,33.266666666666666,Moderately Hard,True,False,False,False,False,False,False,False,True,Unsafe,1
146,Assam,Cachar,Katigora,92.5889,24.8869,2023,7.83,330.0,0.0,201.0,27.0,0.55,23.0,5.0,165.0,52.0,8.0,19.0,13.0,211.20000000000002,58.71,Hard,False,False,False,False,False,False,False,False,False,Unsafe,1
147,Assam,Cachar,Badribasti,92.8772,24.8128,2023,7.07,124.0,0.0,18.0,33.0,0.05,11.0,8.0,30.0,6.0,4.0,13.0,5.0,79.36,12.770000000000001,Soft,False,False,False,False,False,False,False,False,False,Safe,0
148,Assam,Cachar,Borjalinga,92.7186,24.665,2023,7.3,83.0,0.0,43.0,7.0,0.15,2.0,4.0,30.0,10.0,1.0,3.0,8.0,53.120000000000005,12.709999999999999,Soft,False,False,False,False,False,False,False,False,False,Safe,0
149,Assam,Cachar,Fulertol,93.0053,24.7903,2023,6.53,235.0,0.0,73.0,17.0,0.17,26.0,12.0,75.0,20.0,6.0,29.0,5.0,150.4,27.959999999999997,Moderately Hard,False,False,False,False,False,False,False,False,False,Safe,0
150,Assam,Cachar,Nagdirgram,92.8797,24.6703,2023,6.94,451.0,0.0,165.0,70.0,0.36,35.0,10.0,205.0,54.0,17.0,31.0,4.0,288.64,72.14999999999999,Hard,False,False,False,False,False,False,False,False,False,Safe,0
151,Assam,Cachar,Razabazar,93.0647,24.8722,2023,6.91,191.0,0.0,85.0,40.0,0.3,15.0,9.0,60.0,16.0,5.0,28.0,8.0,122.24000000000001,22.939999999999998,Soft,False,False,False,False,False,False,False,False,False,Safe,0
152,Assam,Cachar,Masimpur,92.7269,24.9403,2023,6.6,300.0,0.0,79.0,66.0,0.1,21.0,5.0,65.0,14.0,7.0,42.0,1.0,192.0,24.866666666666664,Soft,False,False,False,False,False,False,False,False,False,Safe,0
153,Assam,Cachar,Moinarbond,92.8358,24.8533,2023,6.84,337.0,0.0,85.0,46.0,0.19,23.0,2.0,135.0,44.0,6.0,23.0,4.0,215.68,48.403333333333336,Moderately Hard,False,False,False,False,False,False,False,False,False,Safe,0
154,Assam,Darrang,Konakat,92.191,26.533,2023,6.82,587.0,0.0,55.0,99.0,0.05,31.0,42.0,200.0,44.0,22.0,41.0,5.0,375.68,70.89666666666666,Hard,False,False,False,False,False,False,False,False,False,Safe,0
155,Assam,Darrang,Mangaldoi,92.017,26.4314,2023,7.46,858.0,0.0,446.0,83.0,0.12,25.0,14.0,310.0,54.0,42.0,76.0,38.0,549.12,108.68,Very Hard,False,False,False,False,False,False,False,False,False,Unsafe,1
156,Assam,Dhubri,Dhubri Town,89.9911,26.02,2023,8.05,612.0,0.0,360.0,63.0,0.21,20.0,5.0,270.0,82.0,16.0,46.0,10.0,391.68,94.72333333333334,Hard,False,False,False,False,False,False,False,False,False,Unsafe,1
157,Assam,Dhubri,Shapamari Beat,90.375,26.2383,2023,7.9,33.0,0.0,37.0,13.0,0.03,6.0,1.0,50.0,10.0,6.0,4.0,3.0,21.12,19.41,Soft,False,False,False,False,False,False,False,False,False,Safe,0
158,Assam,Dibrugarh,Barbaruah,94.8787,27.3987,2023,7.13,105.0,0.0,67.0,10.0,0.15,12.0,1.0,65.0,24.0,1.0,4.0,3.0,67.2,24.393333333333334,Soft,False,False,False,False,False,False,False,False,False,Safe,0
159,Assam,Dibrugarh,Jaipur Naharani,95.2381,27.255,2023,7.4,101.0,0.0,61.0,7.0,0.16,12.0,0.0,55.0,8.0,8.0,4.0,3.0,64.64,21.136666666666667,Soft,False,False,False,False,False,False,False,False,False,Safe,0
160,Assam,Dibrugarh,Azarguri Gaon,94.8903,27.2617,2023,7.58,110.0,0.0,55.0,7.0,0.17,17.0,0.0,65.0,8.0,11.0,4.0,3.0,70.4,24.560000000000002,Soft,False,False,False,False,False,False,False,False,False,Safe,0
161,Assam,Dibrugarh,Dikom,95.0692,27.46,2023,7.62,102.0,0.0,55.0,10.0,0.17,11.0,1.0,65.0,12.0,8.0,4.0,3.0,65.28,24.546666666666667,Soft,False,False,False,False,False,False,False,False,False,Safe,0
162,Assam,Dibrugarh,Chabua,95.1895,27.4931,2023,7.57,100.0,0.0,55.0,10.0,0.18,13.0,0.0,65.0,12.0,8.0,4.0,3.0,64.0,24.52333333333333,Soft,False,False,False,False,False,False,False,False,False,Safe,0
163,Assam,East Karbi Anglong,Bokajan L,93.77,26.0236,2023,6.8,433.0,0.0,110.0,76.0,0.07,51.0,0.0,165.0,58.0,5.0,46.0,4.0,277.12,58.71,Hard,False,False,False,False,False,False,False,False,False,Safe,0
164,Assam,East Karbi Anglong,Bokoliaghat,93.2025,26.0508,2023,6.6,184.0,0.0,37.0,53.0,0.19,0.0,5.0,40.0,10.0,4.0,25.0,5.0,117.76,16.146666666666665,Soft,False,False,False,False,False,False,False,False,False,Safe,0
165,Assam,East Karbi Anglong,Dillai,93.8225,25.9658,2023,6.56,280.0,0.0,153.0,30.0,0.19,9.0,4.0,120.0,26.0,13.0,26.0,1.0,179.20000000000002,43.120000000000005,Moderately Hard,False,False,False,False,False,False,False,False,False,Safe,0
166,Assam,East Karbi Anglong,Diphu 1,93.445,25.8461,2023,6.43,553.0,0.0,55.0,46.0,0.19,27.0,9.0,40.0,10.0,4.0,43.0,12.0,353.92,17.32,Soft,True,False,False,False,False,False,False,False,True,Unsafe,1
167,Assam,East Karbi Anglong,Dokmoka,93.0656,26.2083,2023,7.46,212.0,0.0,128.0,17.0,1.3,9.0,1.0,105.0,40.0,1.0,10.0,3.0,135.68,38.193333333333335,Moderately Hard,False,False,False,False,False,False,False,False,False,Safe,0
168,Assam,East Karbi Anglong,Donka Bey Pz,93.8044,26.0261,2023,7.06,127.0,0.0,153.0,40.0,0.19,7.0,1.0,110.0,24.0,12.0,18.0,6.0,81.28,39.443333333333335,Moderately Hard,False,False,False,False,False,False,False,False,False,Safe,0
169,Assam,East Karbi Anglong,Lahorijan,93.6614,25.9069,2023,6.5,103.0,0.0,43.0,23.0,0.02,12.0,2.0,55.0,10.0,7.0,8.0,4.0,65.92,20.843333333333334,Soft,False,False,False,False,False,False,False,False,False,Safe,0
170,Assam,East Karbi Anglong,Lakhijan,93.7482,26.0506,2023,6.53,120.0,0.0,85.0,7.0,0.19,0.0,1.0,65.0,18.0,5.0,7.0,2.0,76.8,24.243333333333336,Soft,False,False,False,False,False,False,False,False,False,Safe,0
171,Assam,East Karbi Anglong,Manja,93.4408,25.97,2023,6.93,210.0,0.0,55.0,46.0,0.19,11.0,3.0,40.0,10.0,4.0,30.0,7.0,134.4,16.343333333333334,Soft,False,False,False,False,False,False,False,False,False,Safe,0
172,Assam,East Karbi Anglong,Mohendijua,93.411,25.9944,2023,6.76,207.0,0.0,24.0,30.0,0.19,1.0,13.0,40.0,12.0,2.0,14.0,3.0,132.48,16.276666666666667,Soft,False,False,False,False,False,False,False,False,False,Safe,0
173,Assam,East Karbi Anglong,Phuloni,93.1367,26.1708,2023,7.16,739.0,0.0,464.0,40.0,0.19,13.0,16.0,320.0,90.0,23.0,64.0,10.0,472.96000000000004,111.51666666666667,Very Hard,False,False,False,False,False,False,False,False,False,Unsafe,1
174,Assam,East Karbi Anglong,Saphapani,93.7953,26.1964,2023,6.74,372.0,0.0,49.0,27.0,0.19,2.0,3.0,50.0,12.0,5.0,10.0,3.0,238.08,20.153333333333332,Soft,False,False,False,False,False,False,False,False,False,Safe,0
175,Assam,East Karbi Anglong,Silanijan,93.8722,26.3217,2023,6.9,110.0,0.0,43.0,36.0,0.19,11.0,5.0,40.0,10.0,4.0,23.0,9.0,70.4,16.0,Soft,False,False,False,False,False,False,False,False,False,Safe,0
176,Assam,East Karbi Anglong,Srirampur Forest,93.0201,26.2181,2023,7.54,388.0,0.0,293.0,13.0,0.06,3.0,1.0,150.0,48.0,7.0,44.0,3.0,248.32,53.806666666666665,Hard,False,False,False,False,False,False,False,False,False,Safe,0
177,Assam,East Karbi Anglong,Swarghati,93.1047,26.2042,2023,7.73,404.0,0.0,250.0,20.0,0.19,13.0,3.0,170.0,42.0,16.0,34.0,4.0,258.56,60.59,Hard,False,False,False,False,False,False,False,False,False,Safe,0
178,Assam,Goalpara,Agia,90.5641,26.0827,2023,6.89,41.0,0.0,24.0,10.0,0.03,6.0,0.0,25.0,4.0,4.0,5.0,1.0,26.240000000000002,10.766666666666666,Soft,False,False,False,False,False,False,False,False,False,Safe,0
179,Assam,Goalpara,Baida,90.4164,26.0258,2023,6.83,37.0,0.0,31.0,7.0,0.02,5.0,1.0,20.0,4.0,2.0,5.0,1.0,23.68,9.066666666666666,Soft,False,False,False,False,False,False,False,False,False,Safe,0
180,Assam,Goalpara,Dudhnoi,90.7817,25.9825,2023,6.5,373.0,0.0,67.0,63.0,0.04,33.0,1.0,110.0,30.0,8.0,29.0,14.0,238.72,40.07666666666667,Moderately Hard,False,False,False,False,False,False,False,False,False,Unsafe,1
181,Assam,Goalpara,Salpara,90.7008,26.0128,2023,6.99,64.0,0.0,647.0,17.0,0.02,5.0,0.0,475.0,6.0,112.0,4.0,1.0,40.96,160.87666666666667,Very Hard,False,False,False,True,False,False,False,False,True,Unsafe,1
182,Assam,Goalpara,Sarapara,90.9525,25.9714,2023,7.2,266.0,0.0,201.0,10.0,0.48,5.0,5.0,105.0,22.0,12.0,25.0,2.0,170.24,38.28666666666667,Moderately Hard,False,False,False,False,False,False,False,False,False,Safe,0
183,Assam,Golaghat,2 No. Balijan,93.8365,26.4811,2023,6.9,204.0,0.0,122.0,10.0,0.19,12.0,5.0,125.0,34.0,10.0,4.0,3.0,130.56,44.64666666666667,Moderately Hard,False,False,False,False,False,False,False,False,False,Safe,0
184,Assam,Golaghat,Bokaghat,93.6278,26.6372,2023,6.63,165.0,0.0,134.0,20.0,0.04,14.0,4.0,110.0,28.0,10.0,8.0,7.0,105.60000000000001,39.42666666666667,Moderately Hard,False,False,False,False,False,False,False,False,False,Safe,0
185,Assam,Golaghat,Dakkhin Hengra,94.0614,26.5978,2023,7.31,262.0,0.0,177.0,36.0,0.19,5.0,1.0,140.0,40.0,10.0,16.0,2.0,167.68,49.97666666666667,Moderately Hard,False,False,False,False,False,False,False,False,False,Safe,0
186,Assam,Golaghat,Garampani,93.8806,26.3925,2023,6.73,298.0,0.0,43.0,33.0,0.19,31.0,38.0,90.0,20.0,10.0,21.0,15.0,190.72,33.23666666666667,Moderately Hard,False,False,False,False,False,False,False,False,False,Unsafe,1
187,Assam,Golaghat,Haldibari Burhi Aai,93.3258,26.5872,2023,6.99,106.0,0.0,55.0,17.0,0.02,10.0,6.0,40.0,10.0,4.0,12.0,4.0,67.84,16.016666666666666,Soft,False,False,False,False,False,False,False,False,False,Safe,0
188,Assam,Golaghat,Upper Merapani,94.1364,26.52,2023,6.5,226.0,0.0,128.0,7.0,0.19,5.0,1.0,100.0,26.0,8.0,17.0,2.0,144.64000000000001,36.25333333333334,Moderately Hard,False,False,False,False,False,False,False,False,False,Safe,0
189,Assam,Hailakandi,Katlicherra New,92.6411,24.4619,2023,7.37,375.0,0.0,171.0,30.0,0.41,37.0,5.0,170.0,56.0,7.0,28.0,6.0,240.0,60.373333333333335,Hard,False,False,False,False,False,False,False,False,False,Safe,0
190,Assam,Hailakandi,Burakhai,92.6914,24.6292,2023,7.01,198.0,0.0,147.0,10.0,0.3,3.0,4.0,120.0,30.0,11.0,6.0,2.0,126.72,42.99666666666667,Moderately Hard,False,False,False,False,False,False,False,False,False,Safe,0
191,Assam,Hailakandi,Lala,92.5619,24.5978,2023,6.46,141.0,0.0,140.0,7.0,0.15,3.0,10.0,50.0,8.0,7.0,34.0,3.0,90.24,19.29,Soft,True,False,False,False,False,False,False,False,True,Unsafe,1
192,Assam,Hojai,Lanka,92.9508,25.9214,2023,6.95,786.0,0.0,415.0,116.0,0.17,6.0,0.0,325.0,98.0,19.0,62.0,1.0,503.04,113.27,Very Hard,False,False,False,False,False,False,False,False,False,Unsafe,1
193,Assam,Hojai,Zebra Khua,92.8086,26.1386,2023,7.55,225.0,0.0,147.0,20.0,0.17,5.0,7.0,75.0,22.0,5.0,27.0,4.0,144.0,28.266666666666666,Moderately Hard,False,False,False,False,False,False,False,False,False,Safe,0
194,Assam,Jorhat,Kokilamukh,94.1678,26.8194,2023,6.74,259.0,0.0,201.0,23.0,0.05,11.0,4.0,170.0,46.0,13.0,13.0,4.0,165.76,59.77666666666667,Hard,False,False,False,False,False,False,False,False,False,Safe,0
195,Assam,Jorhat,Kunwari Pukhuri,94.2072,26.6983,2023,7.03,533.0,0.0,220.0,40.0,0.31,65.0,14.0,205.0,40.0,25.0,24.0,67.0,341.12,72.45333333333333,Hard,False,False,False,False,False,False,False,False,False,Unsafe,1
196,Assam,Kamrup,Boko,91.245,25.9833,2023,7.1,145.0,0.0,98.0,10.0,0.14,5.0,2.0,70.0,22.0,4.0,6.0,3.0,92.8,26.183333333333334,Soft,False,False,False,False,False,False,False,False,False,Safe,0
197,Assam,Kamrup,Chhaygaon,91.3597,26.0411,2023,7.32,330.0,0.0,214.0,13.0,0.12,13.0,4.0,180.0,62.0,6.0,9.0,3.0,211.20000000000002,63.54,Hard,False,False,False,False,False,False,False,False,False,Safe,0
198,Assam,Kamrup,Rani Ii,91.6061,26.0651,2023,6.52,110.0,0.0,18.0,20.0,0.04,9.0,0.0,35.0,10.0,2.0,6.0,9.0,70.4,14.206666666666665,Soft,False,False,False,False,False,False,False,False,False,Safe,0
199,Assam,Kamrup,Abhaypur,91.5539,26.2542,2023,7.27,489.0,0.0,501.0,126.0,0.19,23.0,13.0,450.0,80.0,61.0,81.0,20.0,312.96,154.05333333333334,Very Hard,False,False,False,True,False,False,False,False,True,Unsafe,1
200,Assam,Kamrup,Dhobartari,91.6904,26.2479,2023,7.26,260.0,0.0,67.0,46.0,0.41,51.0,11.0,145.0,48.0,6.0,32.0,8.0,166.4,51.620000000000005,Moderately Hard,False,False,False,False,False,False,False,False,False,Safe,0
201,Assam,Kamrup,Kachkatc,91.9643,26.1175,2023,7.34,345.0,0.0,110.0,73.0,0.04,51.0,3.0,105.0,26.0,10.0,36.0,21.0,220.8,38.596666666666664,Moderately Hard,False,False,False,False,False,False,False,False,False,Unsafe,1
202,Assam,Kamrup,Khetri Ii,92.0822,26.1135,2023,7.34,306.0,0.0,79.0,17.0,0.04,33.0,1.0,90.0,14.0,13.0,7.0,4.0,195.84,33.46666666666667,Moderately Hard,False,False,False,False,False,False,False,False,False,Safe,0
203,Assam,Kamrup,Rangia,91.6239,26.4375,2023,8.32,654.0,9.0,501.0,80.0,0.11,36.0,3.0,370.0,90.0,35.0,52.0,77.0,418.56,128.28666666666666,Very Hard,False,False,False,True,False,False,False,False,True,Unsafe,1
204,Assam,Kamrup,Sualkuchi,91.5708,26.1672,2023,7.24,518.0,0.0,586.0,109.0,0.19,28.0,33.0,460.0,92.0,56.0,76.0,52.0,331.52,157.47333333333333,Very Hard,False,False,False,True,False,False,False,False,True,Unsafe,1
205,Assam,Kamrup,Topatoli N/Bamfo,92.1383,26.1033,2023,6.83,248.0,0.0,159.0,13.0,0.09,18.0,2.0,145.0,34.0,15.0,5.0,2.0,158.72,51.43666666666667,Moderately Hard,False,False,False,False,False,False,False,False,False,Safe,0
206,Assam,Karimganj,Badarpur,92.5972,24.8711,2023,7.24,156.0,0.0,18.0,13.0,0.06,35.0,12.0,50.0,12.0,5.0,13.0,7.0,99.84,19.599999999999998,Soft,False,False,False,False,False,False,False,False,False,Safe,0
207,Assam,Karimganj,Sarkaribari,92.4122,24.565,2023,6.71,180.0,0.0,73.0,20.0,0.14,11.0,18.0,85.0,24.0,6.0,8.0,5.0,115.2,31.17,Moderately Hard,False,False,False,False,False,False,False,False,False,Safe,0
208,Assam,Karimganj,Hatikira,92.3181,24.4611,2023,7.4,173.0,0.0,79.0,13.0,0.33,31.0,2.0,75.0,20.0,6.0,10.0,4.0,110.72,28.043333333333333,Moderately Hard,False,False,False,False,False,False,False,False,False,Safe,0
209,Assam,Karimganj,Kalinagar,92.4836,24.5842,2023,7.61,305.0,0.0,183.0,17.0,1.0,16.0,10.0,125.0,36.0,8.0,31.0,5.0,195.20000000000002,45.22,Moderately Hard,False,False,False,False,False,False,False,False,False,Safe,0
210,Assam,Karimganj,Kayasthagram,92.4461,24.7206,2023,6.58,218.0,0.0,159.0,10.0,0.2,19.0,4.0,60.0,12.0,7.0,36.0,3.0,139.52,22.92,Soft,False,False,False,False,False,False,False,False,False,Safe,0
211,Assam,Karimganj,Karimganj,92.3639,24.8647,2023,7.48,260.0,0.0,159.0,20.0,0.42,25.0,9.0,140.0,46.0,6.0,10.0,7.0,166.4,50.02666666666667,Moderately Hard,False,False,False,False,False,False,False,False,False,Safe,0
212,Assam,Karimganj,Dhaulia,92.3622,24.6239,2023,7.07,216.0,0.0,128.0,20.0,0.47,7.0,3.0,100.0,26.0,8.0,13.0,3.0,138.24,36.410000000000004,Moderately Hard,False,False,False,False,False,False,False,False,False,Safe,0
213,Assam,Karimganj,Patharkandi,92.3206,24.5944,2023,6.6,186.0,0.0,122.0,17.0,0.47,1.0,17.0,80.0,40.0,5.0,21.0,3.0,119.04,29.486666666666665,Moderately Hard,False,False,False,False,False,False,False,False,False,Safe,0
214,Assam,Karimganj,Dengarbond,92.5481,24.9183,2023,6.74,224.0,0.0,92.0,27.0,0.15,26.0,11.0,90.0,26.0,6.0,17.0,5.0,143.36,32.99333333333333,Moderately Hard,False,False,False,False,False,False,False,False,False,Safe,0
215,Assam,Karimganj,Mahakul,92.8419,25.4003,2023,7.03,169.0,0.0,104.0,17.0,0.31,0.0,1.0,55.0,6.0,10.0,16.0,4.0,108.16,21.24,Soft,False,False,False,False,False,False,False,False,False,Safe,0
216,Assam,Karimganj,Rangamati,92.4956,24.4817,2023,6.74,132.0,0.0,24.0,20.0,0.03,6.0,10.0,35.0,4.0,6.0,15.0,3.0,84.48,14.353333333333333,Soft,False,False,False,False,False,False,False,False,False,Safe,0
217,Assam,Morigaon,Baghara,92.2758,26.2267,2023,7.29,3590.0,0.0,269.0,928.0,0.11,36.0,5.0,230.0,56.0,22.0,474.0,28.0,2297.6,91.06333333333333,Hard,False,True,False,False,True,False,False,False,True,Unsafe,1
218,Assam,Morigaon,Jagiroad,92.1947,26.12,2023,6.45,485.0,0.0,189.0,50.0,0.1,71.0,7.0,140.0,40.0,10.0,46.0,17.0,310.40000000000003,50.43333333333334,Moderately Hard,True,False,False,False,False,False,False,False,True,Unsafe,1
219,Assam,Morigaon,Silsang Namghar,92.3508,26.1217,2023,7.23,157.0,0.0,92.0,23.0,0.05,25.0,1.0,100.0,36.0,2.0,5.0,10.0,100.48,36.266666666666666,Moderately Hard,False,False,False,False,False,False,False,False,False,Safe,0
220,Assam,Nagaon,Bamuni,92.8011,26.3,2023,7.19,303.0,0.0,128.0,30.0,0.11,17.0,2.0,115.0,30.0,10.0,24.0,6.0,193.92000000000002,41.74,Moderately Hard,False,False,False,False,False,False,False,False,False,Safe,0
221,Assam,Nagaon,Bichamari,92.46,26.4014,2023,6.89,522.0,0.0,214.0,50.0,0.14,26.0,35.0,220.0,46.0,25.0,33.0,4.0,334.08,77.37,Hard,False,False,False,False,False,False,False,False,False,Safe,0
222,Assam,Nagaon,Doboka,92.8881,26.1319,2023,6.94,29.0,0.0,85.0,10.0,0.19,0.0,1.0,45.0,10.0,5.0,18.0,1.0,18.56,17.41,Soft,False,False,False,False,False,False,False,False,False,Safe,0
223,Assam,Nagaon,Haldiati Sub Bt,92.9433,26.1725,2023,6.82,272.0,0.0,61.0,56.0,0.06,7.0,1.0,75.0,14.0,10.0,34.0,7.0,174.08,28.180000000000003,Moderately Hard,False,False,False,False,False,False,False,False,False,Safe,0
224,Assam,Nagaon,Kathiatoli,92.736,26.1883,2023,7.07,657.0,0.0,256.0,66.0,0.1,48.0,3.0,250.0,56.0,27.0,61.0,25.0,420.48,87.88,Hard,False,False,False,False,False,False,False,False,False,Unsafe,1
225,Assam,Nagaon,Naderigaon/ Basin Dicate,92.6569,26.1592,2023,7.16,1302.0,0.0,781.0,119.0,0.17,32.0,11.0,370.0,82.0,40.0,180.0,166.0,833.28,130.06,Very Hard,False,False,False,True,False,False,False,False,True,Unsafe,1
226,Assam,Nagaon,Phulaguri,93.0853,26.5753,2023,7.47,356.0,0.0,256.0,17.0,0.13,9.0,1.0,180.0,54.0,11.0,28.0,7.0,227.84,63.67666666666667,Hard,False,False,False,False,False,False,False,False,False,Safe,0
227,Assam,Nalbari,Athiabari,91.2767,26.5985,2023,7.78,129.0,0.0,67.0,23.0,0.05,0.0,6.0,75.0,10.0,12.0,8.0,4.0,82.56,28.02333333333333,Moderately Hard,False,False,False,False,False,False,False,False,False,Safe,0
228,Assam,Nalbari,Daulasal,91.2293,26.2695,2023,7.86,412.0,0.0,244.0,30.0,0.12,21.0,4.0,210.0,68.0,10.0,12.0,17.0,263.68,73.99333333333333,Hard,False,False,False,False,False,False,False,False,False,Unsafe,1
229,Assam,Nalbari,Tihu,91.2692,26.4751,2023,8.14,550.0,0.0,366.0,43.0,0.21,15.0,8.0,265.0,82.0,15.0,44.0,11.0,352.0,92.88,Hard,False,False,False,False,False,False,False,False,False,Unsafe,1
230,Assam,Sonitpur,Barchola,92.3803,26.6053,2023,7.62,128.0,0.0,49.0,23.0,0.07,12.0,17.0,55.0,10.0,7.0,10.0,6.0,81.92,21.3,Soft,False,False,False,False,False,False,False,False,False,Safe,0
231,Assam,Sonitpur,Chaduar,92.7802,26.8546,2023,7.91,268.0,0.0,116.0,43.0,0.08,17.0,5.0,115.0,30.0,10.0,23.0,0.0,171.52,41.86333333333334,Moderately Hard,False,False,False,False,False,False,False,False,False,Safe,0
232,Assam,Sonitpur,Dekhiajuli,92.4708,26.7031,2023,8.1,194.0,0.0,104.0,36.0,0.13,17.0,4.0,80.0,30.0,1.0,19.0,8.0,124.16,30.013333333333332,Moderately Hard,False,False,False,False,False,False,False,False,False,Safe,0
233,Assam,Sonitpur,Garumari,92.7716,26.5713,2023,7.01,173.0,0.0,92.0,17.0,0.08,16.0,1.0,85.0,24.0,6.0,8.0,7.0,110.72,31.246666666666666,Moderately Hard,False,False,False,False,False,False,False,False,False,Safe,0
234,Assam,Sonitpur,Tupia,92.9111,26.799,2023,7.62,247.0,0.0,147.0,20.0,0.11,19.0,10.0,130.0,44.0,5.0,4.0,11.0,158.08,46.696666666666665,Moderately Hard,False,False,False,False,False,False,False,False,False,Safe,0
235,Assam,Tezpur,Tezpur,92.3802,26.6054,2023,7.51,452.0,0.0,214.0,50.0,0.07,15.0,2.0,205.0,54.0,17.0,32.0,10.0,289.28000000000003,72.34333333333333,Hard,False,False,False,False,False,False,False,False,False,Safe,0
236,Assam,Tinsukia,Panitola,95.2545,27.4954,2023,7.42,207.0,0.0,134.0,17.0,0.1,5.0,5.0,105.0,36.0,4.0,10.0,5.0,132.48,38.163333333333334,Moderately Hard,False,False,False,False,False,False,False,False,False,Safe,0
237,Assam,Tinsukia,Tinsukia,95.3519,27.4849,2023,6.55,122.0,0.0,79.0,13.0,0.18,16.0,0.0,95.0,20.0,11.0,4.0,6.0,78.08,34.25666666666667,Moderately Hard,False,False,False,False,False,False,False,False,False,Safe,0
238,Assam,Tinsukia,Kumsang Selenguri,95.6331,27.6197,2023,7.21,103.0,0.0,55.0,10.0,0.15,12.0,1.0,60.0,10.0,8.0,4.0,3.0,65.92,22.746666666666666,Soft,False,False,False,False,False,False,False,False,False,Safe,0
239,Assam,Tinsukia,Borgolai,95.713,27.2775,2023,7.61,101.0,0.0,61.0,7.0,0.17,13.0,0.0,65.0,12.0,8.0,4.0,2.0,64.64,24.540000000000003,Soft,False,False,False,False,False,False,False,False,False,Safe,0
240,Assam,Tinsukia,Digboi,95.6154,27.3803,2023,7.3,103.0,0.0,55.0,7.0,0.16,13.0,1.0,60.0,10.0,8.0,4.0,3.0,65.92,22.776666666666667,Soft,False,False,False,False,False,False,False,False,False,Safe,0
241,Assam,Tinsukia,Jagun,95.9036,27.383,2023,7.44,102.0,0.0,61.0,7.0,0.17,13.0,1.0,70.0,10.0,11.0,4.0,3.0,65.28,26.153333333333336,Soft,False,False,False,False,False,False,False,False,False,Safe,0
242,Assam,Tinsukia,Lekhapani,95.8181,27.3197,2023,7.61,200.0,0.0,128.0,13.0,0.05,5.0,6.0,120.0,42.0,4.0,10.0,3.0,128.0,43.20333333333334,Moderately Hard,False,False,False,False,False,False,False,False,False,Safe,0
243,Assam,Tinsukia,Tirap Gate,95.8483,27.3331,2023,6.84,109.0,0.0,67.0,10.0,0.2,12.0,0.0,65.0,16.0,6.0,4.0,3.0,69.76,24.310000000000002,Soft,False,False,False,False,False,False,False,False,False,Safe,0
244,Assam,Udalguri,Hatitopagaon,92.3095,26.8517,2023,7.79,150.0,0.0,79.0,20.0,0.12,11.0,12.0,65.0,16.0,6.0,19.0,5.0,96.0,24.763333333333332,Soft,False,False,False,False,False,False,False,False,False,Safe,0
245,Assam,Udalguri,Kachabil,91.9128,26.7517,2023,7.83,95.0,0.0,43.0,13.0,0.05,18.0,2.0,65.0,24.0,1.0,4.0,3.0,60.800000000000004,24.593333333333334,Soft,False,False,False,False,False,False,False,False,False,Safe,0
246,Assam,Udalguri,Rowta Chariali,92.2056,26.7117,2023,8.37,630.0,21.0,256.0,63.0,0.24,42.0,11.0,220.0,72.0,10.0,56.0,23.0,403.2,78.22333333333333,Hard,False,False,False,False,False,False,False,False,False,Unsafe,1
247,Assam,Udalguri,Token Katta,91.9145,26.6349,2023,8.23,215.0,0.0,110.0,20.0,0.11,34.0,9.0,135.0,48.0,4.0,3.0,6.0,137.6,48.46,Moderately Hard,False,False,False,False,False,False,False,False,False,Safe,0
248,Assam,West Karbi Anglong,Boithalangsu,92.5978,25.9728,2023,6.59,175.0,0.0,73.0,17.0,0.06,8.0,0.0,60.0,10.0,8.0,11.0,1.0,112.0,22.78,Soft,False,False,False,False,False,False,False,False,False,Safe,0
249,Assam,West Karbi Anglong,Donkamokam,92.71,25.9328,2023,6.45,132.0,0.0,55.0,23.0,0.04,2.0,0.0,25.0,8.0,1.0,18.0,2.0,84.48,10.923333333333334,Soft,True,False,False,False,False,False,False,False,True,Unsafe,1
250,Assam,West Karbi Anglong,Kalonga,92.7678,25.8617,2023,6.54,90.0,0.0,37.0,23.0,0.01,3.0,3.0,35.0,6.0,5.0,15.0,6.0,57.6,14.146666666666667,Soft,False,False,False,False,False,False,False,False,False,Safe,0
251,Assam,West Karbi Anglong,Kheronighat,92.8842,25.8475,2023,7.36,339.0,0.0,85.0,53.0,0.03,27.0,24.0,90.0,28.0,5.0,32.0,11.0,216.96,33.583333333333336,Moderately Hard,False,False,False,False,False,False,False,False,False,Safe,0
252,Assam,Biswanath,Borgang New (Koherbari),93.2946,26.8346,2023,7.77,465.0,0.0,232.0,30.0,0.05,34.0,2.0,225.0,56.0,21.0,13.0,40.0,297.6,79.14,Hard,False,False,False,False,False,False,False,False,False,Unsafe,1
253,Assam,Biswanath,Behali,93.3578,26.8323,2023,7.75,457.0,0.0,189.0,36.0,0.04,18.0,3.0,220.0,62.0,16.0,13.0,0.0,292.48,77.44,Hard,False,False,False,False,False,False,False,False,False,Safe,0
254,Assam,Biswanath,Biswanath Chariali,93.1518,26.7253,2023,7.75,465.0,0.0,214.0,36.0,0.05,14.0,2.0,225.0,58.0,19.0,13.0,25.0,297.6,79.13333333333334,Hard,False,False,False,False,False,False,False,False,False,Unsafe,1
255,Assam,Biswanath,Gohpur New,93.6099,26.88,2023,7.82,471.0,0.0,214.0,46.0,0.05,19.0,3.0,225.0,58.0,19.0,13.0,40.0,301.44,79.17666666666666,Hard,False,False,False,False,False,False,False,False,False,Unsafe,1
256,Assam,Biswanath,Helem New,93.4658,26.85,2023,7.99,458.0,0.0,232.0,36.0,0.06,31.0,2.0,235.0,56.0,23.0,14.0,41.0,293.12,82.52333333333333,Hard,False,False,False,False,False,False,False,False,False,Unsafe,1
257,Assam,Dhemaji,Bordoloni,94.4272,27.4134,2023,7.54,179.0,0.0,153.0,23.0,0.05,4.0,0.0,170.0,32.0,22.0,11.0,4.0,114.56,59.77666666666667,Hard,False,False,False,False,False,False,False,False,False,Safe,0
258,Assam,Dhemaji,Dhemaji,94.5878,27.5117,2023,7.88,182.0,0.0,165.0,23.0,0.08,1.0,0.0,165.0,32.0,21.0,11.0,3.0,116.48,58.23333333333333,Hard,False,False,False,False,False,False,False,False,False,Safe,0
259,Assam,Dhemaji,Santipur,94.505,27.5553,2023,7.59,262.0,0.0,159.0,20.0,0.04,4.0,0.0,170.0,44.0,15.0,11.0,3.0,167.68,60.07,Hard,False,False,False,False,False,False,False,False,False,Safe,0
260,Assam,Dhemaji,Bhagaban Charali,94.8566,27.7098,2023,7.25,274.0,0.0,171.0,20.0,0.06,14.0,0.0,145.0,38.0,12.0,12.0,3.0,175.36,51.663333333333334,Moderately Hard,False,False,False,False,False,False,False,False,False,Safe,0
261,Assam,Dhemaji,Bijoypur,95.1668,27.7804,2023,7.28,274.0,0.0,177.0,23.0,0.06,16.0,0.0,160.0,34.0,18.0,12.0,4.0,175.36,56.67333333333334,Hard,False,False,False,False,False,False,False,False,False,Safe,0
262,Assam,Dhemaji,Jonai Murkongselek,95.1467,27.8367,2023,7.55,250.0,0.0,183.0,23.0,0.04,4.0,0.0,175.0,30.0,24.0,11.0,3.0,160.0,61.68333333333334,Hard,False,False,False,False,False,False,False,False,False,Safe,0
263,Assam,Dhemaji,Telem,95.0556,27.7125,2023,7.84,202.0,0.0,165.0,13.0,0.05,2.0,5.0,120.0,42.0,4.0,10.0,3.0,129.28,43.28666666666667,Moderately Hard,False,False,False,False,False,False,False,False,False,Safe,0
264,Assam,Dhemaji,Siripani,94.65,27.5828,2023,7.7,267.0,0.0,165.0,20.0,0.07,2.0,0.0,165.0,26.0,24.0,11.0,3.0,170.88,58.45666666666667,Hard,False,False,False,False,False,False,False,False,False,Safe,0
265,Assam,Dhemaji,Sisibargaon,94.7222,27.5417,2023,7.72,200.0,0.0,134.0,10.0,0.05,1.0,5.0,120.0,42.0,4.0,10.0,3.0,128.0,43.24,Moderately Hard,False,False,False,False,False,False,False,False,False,Safe,0
266,Assam,Lakhimpur,Bihpuria,93.9083,27.0333,2023,7.93,203.0,0.0,165.0,10.0,0.04,2.0,4.0,120.0,40.0,5.0,10.0,3.0,129.92000000000002,43.32,Moderately Hard,False,False,False,False,False,False,False,False,False,Safe,0
267,Assam,Lakhimpur,Boginadi Balijan New,94.189,27.3836,2023,7.74,202.0,0.0,159.0,10.0,0.03,2.0,5.0,125.0,42.0,5.0,10.0,3.0,129.28,44.919999999999995,Moderately Hard,False,False,False,False,False,False,False,False,False,Safe,0
268,Assam,Lakhimpur,Borbil Tariyani,94.1746,27.4029,2023,7.27,112.0,0.0,61.0,17.0,0.11,6.0,1.0,75.0,12.0,11.0,3.0,2.0,71.68,27.796666666666667,Moderately Hard,False,False,False,False,False,False,False,False,False,Safe,0
269,Assam,Lakhimpur,Kadam,94.15,27.3,2023,7.71,384.0,0.0,134.0,40.0,0.05,15.0,26.0,205.0,44.0,23.0,16.0,6.0,245.76,72.18333333333334,Hard,False,False,False,False,False,False,False,False,False,Safe,0
270,Assam,Lakhimpur,Moridirgha,94.1356,27.3235,2023,7.64,378.0,0.0,159.0,40.0,0.05,15.0,26.0,195.0,50.0,17.0,28.0,6.0,241.92000000000002,68.80666666666666,Hard,False,False,False,False,False,False,False,False,False,Safe,0
271,Assam,Lakhimpur,Pathalipam,94.23,27.4477,2023,8.12,466.0,0.0,226.0,43.0,0.1,22.0,2.0,205.0,58.0,15.0,13.0,41.0,298.24,72.59333333333333,Hard,False,False,False,False,False,False,False,False,False,Unsafe,1
272,Assam,Lakhimpur,Pathalipam Ii,94.21,27.44,2023,7.8,436.0,0.0,244.0,30.0,0.05,10.0,2.0,230.0,54.0,23.0,13.0,40.0,279.04,80.72,Hard,False,False,False,False,False,False,False,False,False,Unsafe,1
273,Assam,Lakhimpur,Harmoti,93.8539,27.1229,2023,7.57,383.0,0.0,153.0,46.0,0.05,5.0,26.0,175.0,46.0,14.0,27.0,6.0,245.12,62.13333333333333,Hard,False,False,False,False,False,False,False,False,False,Safe,0
274,Assam,Lakhimpur,Dejoo,94.0253,27.2716,2023,7.65,204.0,0.0,140.0,7.0,0.05,2.0,5.0,125.0,44.0,4.0,10.0,3.0,130.56,44.89666666666667,Moderately Hard,False,False,False,False,False,False,False,False,False,Safe,0
275,Assam,Lakhimpur,Koilamari 6 No Line,94.0425,27.3159,2023,7.66,376.0,0.0,147.0,43.0,0.04,9.0,26.0,190.0,46.0,18.0,27.0,6.0,240.64000000000001,67.14,Hard,False,False,False,False,False,False,False,False,False,Safe,0
276,Assam,Lakhimpur,N. Lakhipur,94.1028,27.2224,2023,7.68,380.0,0.0,159.0,40.0,0.05,13.0,26.0,185.0,48.0,16.0,27.0,6.0,243.20000000000002,65.49333333333333,Hard,False,False,False,False,False,False,False,False,False,Safe,0
277,Assam,Lakhimpur,Panigaon,94.1107,27.1374,2023,7.83,464.0,0.0,214.0,50.0,0.08,6.0,2.0,215.0,60.0,16.0,13.0,4.0,296.96,75.82333333333334,Hard,False,False,False,False,False,False,False,False,False,Safe,0
278,Assam,Lakhimpur,Dolanghat Chara,93.9984,27.1633,2023,7.62,368.0,0.0,147.0,40.0,0.04,3.0,26.0,170.0,44.0,15.0,27.0,6.0,235.52,60.43333333333334,Hard,False,False,False,False,False,False,False,False,False,Safe,0
279,Assam,Lakhimpur,Bhogpur Charali,93.8328,27.0466,2023,7.72,200.0,0.0,153.0,13.0,0.03,2.0,5.0,120.0,40.0,5.0,10.0,3.0,128.0,43.24,Moderately Hard,False,False,False,False,False,False,False,False,False,Safe,0
280,Assam,Lakhimpur,Narayanpur,93.8549,26.9535,2023,7.79,451.0,0.0,220.0,36.0,0.05,10.0,2.0,215.0,54.0,19.0,13.0,40.0,288.64,75.76666666666667,Hard,False,False,False,False,False,False,False,False,False,Unsafe,1
281,Bihar,Araria,Araria,87.4609,26.1432,2023,7.91,522.0,0.0,195.0,46.0,0.09,13.0,29.0,200.0,36.0,27.0,24.0,6.0,334.08,71.04333333333334,Hard,False,False,False,False,False,False,False,False,False,Safe,0
282,Bihar,Araria,Paikapar,87.1504,26.0653,2023,7.63,596.0,0.0,201.0,71.0,0.7,17.0,18.0,260.0,60.0,27.0,16.0,1.0,381.44,91.19666666666666,Hard,False,False,False,False,False,False,False,False,False,Safe,0
283,Bihar,Araria,Bathnaha 1,87.1497,26.0693,2023,7.84,199.0,0.0,85.0,11.0,0.13,9.0,6.0,80.0,14.0,11.0,5.0,5.0,127.36,29.94333333333333,Moderately Hard,False,False,False,False,False,False,False,False,False,Safe,0
284,Bihar,Araria,Haripur,87.2315,26.2315,2023,7.54,350.0,0.0,159.0,18.0,0.13,9.0,9.0,155.0,36.0,16.0,9.0,1.0,224.0,55.346666666666664,Hard,False,False,False,False,False,False,False,False,False,Safe,0
285,Bihar,Araria,Matiyari,87.251,26.3206,2023,7.89,826.0,0.0,262.0,96.0,0.85,38.0,27.0,270.0,58.0,30.0,53.0,19.0,528.64,95.38333333333333,Hard,False,False,False,False,False,False,False,False,False,Unsafe,1
286,Bihar,Araria,Jokihat,87.6559,26.1612,2023,7.91,1004.0,0.0,403.0,89.0,0.29,39.0,5.0,320.0,64.0,39.0,71.0,24.0,642.5600000000001,112.64999999999999,Very Hard,False,False,False,False,False,False,False,False,False,Unsafe,1
287,Bihar,Araria,Palasi,87.224,26.3228,2023,7.92,259.0,0.0,92.0,28.0,0.34,11.0,1.0,125.0,40.0,6.0,1.0,2.0,165.76,45.169999999999995,Moderately Hard,False,False,False,False,False,False,False,False,False,Safe,0
288,Bihar,Araria,Raniganj,87.2321,26.0949,2023,7.72,559.0,0.0,214.0,46.0,0.12,17.0,28.0,240.0,62.0,21.0,15.0,5.0,357.76,84.43666666666667,Hard,False,False,False,False,False,False,False,False,False,Safe,0
289,Bihar,Araria,Sikti,87.5479,26.4064,2023,7.81,389.0,0.0,140.0,46.0,0.32,13.0,1.0,135.0,36.0,11.0,25.0,2.0,248.96,48.9,Moderately Hard,False,False,False,False,False,False,False,False,False,Safe,0
290,Bihar,Arwal,Arwal,84.6668,25.2495,2023,7.65,1031.0,0.0,329.0,121.0,0.65,43.0,32.0,370.0,90.0,35.0,55.0,22.0,659.84,129.32,Very Hard,False,False,False,False,False,False,False,False,False,Unsafe,1
291,Bihar,Arwal,Dirpal Bigha,84.7032,25.2943,2023,7.81,488.0,0.0,183.0,28.0,0.69,12.0,50.0,200.0,50.0,18.0,19.0,1.0,312.32,70.89666666666666,Hard,False,False,False,False,False,False,False,True,True,Unsafe,1
292,Bihar,Arwal,Imamganj,84.7489,25.2152,2023,7.93,678.0,0.0,287.0,43.0,0.61,30.0,11.0,280.0,64.0,29.0,22.0,10.0,433.92,98.23666666666666,Hard,False,False,False,False,False,False,False,False,False,Safe,0
293,Bihar,Arwal,Madhubani,84.6045,25.1904,2023,7.97,266.0,0.0,104.0,21.0,0.43,15.0,0.0,125.0,30.0,12.0,4.0,1.0,170.24,45.21,Moderately Hard,False,False,False,False,False,False,False,False,False,Safe,0
294,Bihar,Arwal,Kaler,84.5002,25.1172,2023,7.78,603.0,0.0,232.0,53.0,0.5,33.0,4.0,260.0,88.0,10.0,13.0,9.0,385.92,91.27,Hard,False,False,False,False,False,False,False,False,False,Unsafe,1
295,Bihar,Arwal,Bairbigha,84.7151,25.1535,2023,7.82,657.0,0.0,262.0,53.0,0.36,28.0,13.0,220.0,50.0,23.0,47.0,3.0,420.48,78.13,Hard,False,False,False,False,False,False,False,False,False,Safe,0
296,Bihar,Arwal,Kinjer,84.8291,25.2168,2023,7.89,405.0,0.0,183.0,28.0,0.39,10.0,5.0,175.0,60.0,6.0,11.0,1.0,259.2,62.31333333333333,Hard,False,False,False,False,False,False,False,False,False,Safe,0
297,Bihar,Arwal,Kurtha,84.8089,25.1247,2023,7.96,739.0,0.0,348.0,43.0,0.54,18.0,3.0,265.0,68.0,23.0,47.0,4.0,472.96000000000004,93.45,Hard,False,False,False,False,False,False,False,False,False,Safe,0
298,Bihar,Arwal,Jhunathi,84.8853,25.2114,2023,8.11,648.0,0.0,281.0,43.0,0.6,29.0,0.0,250.0,58.0,26.0,34.0,1.0,414.72,88.19666666666666,Hard,False,False,False,False,False,False,False,False,False,Safe,0
299,Bihar,Arwal,Bansi Surajpur,84.7324,25.1146,2023,8.03,1616.0,0.0,549.0,206.0,0.74,64.0,3.0,560.0,40.0,112.0,109.0,8.0,1034.24,194.73000000000002,Very Hard,False,True,False,True,False,False,False,False,True,Unsafe,1
300,Bihar,Aurangabad,Aurangabad,84.3845,24.7462,2023,7.85,2614.0,0.0,848.0,366.0,0.75,67.0,30.0,880.0,138.0,130.0,175.0,40.0,1672.96,304.66333333333336,Very Hard,False,True,False,True,True,False,False,False,True,Unsafe,1
301,Bihar,Aurangabad,Parnawa,84.3445,24.8407,2023,7.84,586.0,0.0,220.0,50.0,0.72,24.0,20.0,245.0,72.0,16.0,21.0,1.0,375.04,86.23333333333333,Hard,False,False,False,False,False,False,False,False,False,Safe,0
302,Bihar,Aurangabad,Barun,84.2128,24.8685,2023,8.05,485.0,0.0,195.0,39.0,0.68,22.0,6.0,205.0,18.0,39.0,16.0,1.0,310.40000000000003,72.63333333333334,Hard,False,False,False,False,False,False,False,False,False,Unsafe,1
303,Bihar,Aurangabad,Narari Kala,84.1491,24.7877,2023,7.88,683.0,0.0,256.0,64.0,0.66,29.0,9.0,240.0,88.0,5.0,47.0,2.0,437.12,84.90333333333334,Hard,False,False,False,False,False,False,False,False,False,Unsafe,1
304,Bihar,Aurangabad,Daudnagar,84.4049,25.0346,2023,8.01,1635.0,0.0,458.0,263.0,0.63,59.0,15.0,515.0,80.0,77.0,120.0,31.0,1046.4,179.78666666666666,Very Hard,False,True,False,False,True,False,False,False,True,Unsafe,1
305,Bihar,Aurangabad,Deo1,84.4401,24.6687,2023,7.78,1185.0,0.0,512.0,82.0,0.82,44.0,14.0,325.0,32.0,60.0,122.0,1.0,758.4,114.87666666666667,Very Hard,False,False,False,True,False,False,False,False,True,Unsafe,1
306,Bihar,Aurangabad,Deohara Goh,84.5793,25.0045,2023,7.98,805.0,0.0,305.0,67.0,0.38,44.0,16.0,250.0,62.0,23.0,68.0,3.0,515.2,88.67666666666666,Hard,False,False,False,False,False,False,False,False,False,Safe,0
307,Bihar,Aurangabad,Dhobi Tola Goh,84.6477,24.984,2023,7.93,1906.0,0.0,531.0,280.0,0.29,91.0,38.0,510.0,120.0,51.0,181.0,36.0,1219.84,178.99666666666667,Very Hard,False,True,False,True,True,False,False,False,True,Unsafe,1
308,Bihar,Aurangabad,Etwan,84.5447,25.044,2023,8.1,553.0,0.0,232.0,43.0,0.46,20.0,7.0,190.0,50.0,16.0,35.0,7.0,353.92,67.87666666666667,Hard,False,False,False,False,False,False,False,False,False,Safe,0
309,Bihar,Aurangabad,Kutumba,84.2209,24.6128,2023,7.81,1395.0,0.0,488.0,153.0,0.74,56.0,31.0,360.0,48.0,58.0,139.0,28.0,892.8000000000001,127.25333333333333,Very Hard,False,False,False,False,False,False,False,False,False,Unsafe,1
310,Bihar,Aurangabad,Mahauli,84.1626,24.6146,2023,7.95,1509.0,0.0,506.0,185.0,0.8,69.0,9.0,435.0,98.0,46.0,131.0,26.0,965.76,152.68,Very Hard,False,True,False,True,False,False,False,False,True,Unsafe,1
311,Bihar,Aurangabad,Nabinagar,84.1139,24.6399,2023,8.03,659.0,0.0,311.0,28.0,0.8,25.0,10.0,185.0,34.0,24.0,64.0,2.0,421.76,66.54,Hard,False,False,False,False,False,False,False,False,False,Safe,0
312,Bihar,Aurangabad,Obra,84.3724,24.8894,2023,7.92,821.0,0.0,336.0,64.0,0.77,26.0,22.0,290.0,86.0,18.0,52.0,4.0,525.44,102.04333333333334,Hard,False,False,False,False,False,False,False,False,False,Unsafe,1
313,Bihar,Aurangabad,Rafiganj,84.6318,24.8151,2023,7.76,1133.0,0.0,470.0,103.0,0.55,15.0,20.0,315.0,48.0,47.0,109.0,13.0,725.12,111.36333333333333,Very Hard,False,False,False,False,False,False,False,False,False,Unsafe,1
314,Bihar,Aurangabad,Tineri Morh,84.6429,24.871,2023,7.68,607.0,0.0,287.0,32.0,0.57,21.0,1.0,205.0,48.0,21.0,45.0,0.0,388.48,72.91666666666667,Hard,False,False,False,False,False,False,False,False,False,Safe,0
315,Bihar,Banka,Amarpur,86.903,25.0387,2023,7.98,825.0,0.0,275.0,107.0,0.18,22.0,14.0,225.0,46.0,27.0,78.0,15.0,528.0,80.41,Hard,False,False,False,False,False,False,False,False,False,Unsafe,1
316,Bihar,Banka,English Morh,86.9057,24.9959,2023,7.83,705.0,0.0,244.0,71.0,0.14,28.0,30.0,210.0,50.0,21.0,57.0,12.0,451.2,74.96,Hard,False,False,False,False,False,False,False,False,False,Safe,0
317,Bihar,Banka,Rampur,86.8448,25.0055,2023,7.99,1312.0,0.0,378.0,170.0,0.13,86.0,18.0,470.0,100.0,53.0,76.0,18.0,839.6800000000001,163.70333333333335,Very Hard,False,False,False,False,False,False,False,False,False,Unsafe,1
318,Bihar,Banka,Banka,86.9234,24.8823,2023,7.69,662.0,0.0,183.0,114.0,0.25,12.0,12.0,190.0,36.0,24.0,55.0,15.0,423.68,68.10333333333334,Hard,False,False,False,False,False,False,False,False,False,Unsafe,1
319,Bihar,Banka,Chandan,86.665,24.6171,2023,7.91,438.0,0.0,153.0,53.0,0.73,12.0,4.0,170.0,42.0,16.0,23.0,1.0,280.32,60.76333333333333,Hard,False,False,False,False,False,False,False,False,False,Safe,0
320,Bihar,Banka,Baunsi,87.0239,24.8013,2023,7.78,2042.0,0.0,641.0,231.0,1.18,136.0,34.0,500.0,128.0,44.0,236.0,4.0,1306.88,176.0666666666667,Very Hard,False,True,False,True,False,False,False,False,True,Unsafe,1
321,Bihar,Banka,Panjwara,87.0972,24.853,2023,8.03,576.0,0.0,153.0,71.0,0.4,38.0,30.0,175.0,40.0,18.0,46.0,9.0,368.64,62.93,Hard,False,False,False,False,False,False,False,False,False,Safe,0
322,Bihar,Banka,Tinmurty,86.6018,24.9179,2023,8.03,718.0,0.0,244.0,99.0,0.12,13.0,8.0,190.0,40.0,22.0,73.0,7.0,459.52,68.40333333333334,Hard,False,False,False,False,False,False,False,False,False,Safe,0
323,Bihar,Banka,Katuria,86.7223,24.7457,2023,7.96,1133.0,0.0,305.0,160.0,0.39,60.0,36.0,355.0,90.0,32.0,83.0,23.0,725.12,124.76333333333334,Very Hard,False,False,False,False,False,False,False,False,False,Unsafe,1
324,Bihar,Banka,Kharharia,86.9327,25.1324,2023,7.85,530.0,0.0,183.0,64.0,1.08,19.0,0.0,190.0,28.0,29.0,33.0,1.0,339.2,67.71666666666667,Hard,False,False,False,False,False,False,False,False,False,Safe,0
325,Bihar,Banka,Sambhuganj,86.7333,25.0806,2023,7.94,904.0,0.0,305.0,124.0,0.61,16.0,9.0,230.0,64.0,17.0,55.0,81.0,578.5600000000001,82.32666666666667,Hard,False,False,False,False,False,False,False,False,False,Unsafe,1
326,Bihar,Banka,Mirzapur,86.7606,25.0806,2023,7.92,832.0,0.0,214.0,142.0,1.63,29.0,5.0,155.0,30.0,19.0,119.0,4.0,532.48,57.080000000000005,Hard,False,False,False,False,False,True,False,False,True,Unsafe,1
327,Bihar,Begusarai,Bagrash,86.2611,25.559,2023,7.83,828.0,0.0,336.0,53.0,0.47,53.0,11.0,350.0,80.0,36.0,22.0,10.0,529.92,122.03666666666668,Very Hard,False,False,False,False,False,False,False,False,False,Unsafe,1
328,Bihar,Begusarai,Bakhri Salauna,86.261,25.6001,2023,7.61,1192.0,0.0,458.0,85.0,0.71,75.0,25.0,475.0,106.0,51.0,41.0,26.0,762.88,164.84333333333333,Very Hard,False,False,False,False,False,False,False,False,False,Unsafe,1
329,Bihar,Begusarai,Peernagar,86.2,25.5769,2023,7.95,1617.0,0.0,555.0,149.0,0.33,128.0,8.0,625.0,126.0,75.0,70.0,25.0,1034.88,216.37333333333333,Very Hard,False,True,False,True,False,False,False,False,True,Unsafe,1
330,Bihar,Begusarai,Badi Balia,86.2755,25.4191,2023,7.74,953.0,0.0,421.0,50.0,0.59,57.0,3.0,395.0,56.0,62.0,31.0,10.0,609.92,137.42333333333332,Very Hard,False,False,False,False,False,False,False,False,False,Unsafe,1
331,Bihar,Begusarai,Bariarpur,86.263,25.399,2023,7.95,1336.0,0.0,543.0,78.0,0.35,85.0,28.0,550.0,58.0,98.0,41.0,23.0,855.04,190.43666666666664,Very Hard,False,False,False,True,False,False,False,False,True,Unsafe,1
332,Bihar,Begusarai,Laxminia  *,86.3151,25.4184,2023,7.82,598.0,0.0,336.0,7.0,0.39,11.0,0.0,290.0,46.0,43.0,3.0,3.0,382.72,101.26666666666667,Hard,False,False,False,False,False,False,False,False,False,Unsafe,1
333,Bihar,Begusarai,Parihara,86.2738,25.536,2023,8.18,2165.0,0.0,647.0,295.0,0.68,98.0,38.0,700.0,156.0,75.0,154.0,39.0,1385.6000000000001,243.27666666666667,Very Hard,False,True,False,True,True,False,False,False,True,Unsafe,1
334,Bihar,Begusarai,Pokharia,86.2648,25.4186,2023,7.63,809.0,0.0,366.0,50.0,0.26,32.0,4.0,355.0,80.0,38.0,20.0,4.0,517.76,123.57333333333334,Very Hard,False,False,False,False,False,False,False,False,False,Unsafe,1
335,Bihar,Begusarai,Rahatpur,86.2525,25.3857,2023,7.78,792.0,0.0,372.0,32.0,0.55,41.0,1.0,355.0,64.0,47.0,16.0,6.0,506.88,123.56666666666666,Very Hard,False,False,False,False,False,False,False,False,False,Unsafe,1
336,Bihar,Begusarai,Choti Balia,86.3043,25.4221,2023,7.78,692.0,0.0,360.0,18.0,0.41,19.0,4.0,330.0,62.0,43.0,3.0,8.0,442.88,114.89999999999999,Very Hard,False,False,False,False,False,False,False,False,False,Unsafe,1
337,Bihar,Begusarai,Barun ‘0’ Mile,86.0272,25.4476,2023,7.74,949.0,0.0,445.0,46.0,0.65,39.0,1.0,440.0,84.0,56.0,12.0,8.0,607.36,152.41,Very Hard,False,False,False,False,False,False,False,False,False,Unsafe,1
338,Bihar,Begusarai,Barieghu,86.1422,25.3999,2023,8.02,1084.0,0.0,488.0,64.0,0.46,26.0,32.0,435.0,98.0,46.0,41.0,13.0,693.76,151.28666666666666,Very Hard,False,False,False,False,False,False,False,False,False,Unsafe,1
339,Bihar,Begusarai,Begusarai Fc/Ib,86.1371,25.4299,2023,8.11,882.0,0.0,366.0,60.0,0.85,40.0,18.0,345.0,72.0,40.0,41.0,5.0,564.48,120.64333333333333,Very Hard,False,False,False,False,False,False,False,False,False,Unsafe,1
340,Bihar,Begusarai,Haridia,86.1409,25.4539,2023,7.85,1155.0,0.0,366.0,128.0,0.49,91.0,5.0,470.0,64.0,75.0,40.0,15.0,739.2,163.13333333333333,Very Hard,False,False,False,False,False,False,False,False,False,Unsafe,1
341,Bihar,Begusarai,Harpur,86.0769,25.4388,2023,7.93,769.0,0.0,384.0,25.0,0.48,29.0,0.0,355.0,98.0,27.0,12.0,3.0,492.16,123.54,Very Hard,False,False,False,False,False,False,False,False,False,Unsafe,1
342,Bihar,Begusarai,Kaithma,86.1482,25.3909,2023,8.14,758.0,0.0,421.0,14.0,0.94,13.0,0.0,345.0,58.0,49.0,10.0,8.0,485.12,120.24000000000001,Very Hard,False,False,False,False,False,False,False,False,False,Unsafe,1
343,Bihar,Begusarai,Lakho,86.1866,25.4128,2023,7.73,691.0,0.0,354.0,21.0,0.78,19.0,7.0,280.0,40.0,44.0,29.0,1.0,442.24,98.21333333333332,Hard,False,False,False,False,False,False,False,False,False,Unsafe,1
344,Bihar,Begusarai,Mohanpur Usrai,86.1287,25.521,2023,7.73,717.0,0.0,403.0,11.0,0.75,11.0,3.0,325.0,58.0,44.0,14.0,2.0,458.88,113.3,Very Hard,False,False,False,False,False,False,False,False,False,Unsafe,1
345,Bihar,Begusarai,Simri,86.2222,25.6131,2023,7.89,1041.0,0.0,439.0,57.0,0.44,77.0,1.0,425.0,92.0,47.0,35.0,14.0,666.24,147.76666666666668,Very Hard,False,False,False,False,False,False,False,False,False,Unsafe,1
346,Bihar,Begusarai,Cheriya Bariyarpur,86.0906,25.5853,2023,7.81,1994.0,0.0,616.0,259.0,0.88,99.0,29.0,685.0,190.0,51.0,126.0,29.0,1276.16,237.58333333333334,Very Hard,False,True,False,True,True,False,False,False,True,Unsafe,1
347,Bihar,Begusarai,Gopalpur,86.0225,25.6315,2023,7.91,1055.0,0.0,409.0,64.0,0.36,95.0,2.0,455.0,92.0,55.0,27.0,13.0,675.2,157.82,Very Hard,False,False,False,False,False,False,False,False,False,Unsafe,1
348,Bihar,Begusarai,Kumbhidera,86.06,25.6524,2023,7.66,1987.0,0.0,506.0,348.0,0.42,75.0,15.0,705.0,150.0,80.0,117.0,25.0,1271.68,244.17666666666665,Very Hard,False,True,False,True,True,False,False,False,True,Unsafe,1
349,Bihar,Begusarai,Manjaul   *,86.1233,25.5653,2023,7.95,1640.0,0.0,482.0,167.0,1.02,157.0,28.0,605.0,134.0,66.0,87.0,21.0,1049.6,209.78333333333333,Very Hard,False,True,False,False,False,False,False,False,True,Unsafe,1
350,Bihar,Begusarai,Aghara,86.0358,25.6175,2023,7.65,1051.0,0.0,323.0,121.0,0.05,86.0,3.0,360.0,60.0,51.0,70.0,8.0,672.64,126.05333333333334,Very Hard,False,False,False,False,False,False,False,False,False,Unsafe,1
351,Bihar,Begusarai,Kumarshan,86.2008,25.6308,2023,7.61,1148.0,0.0,439.0,78.0,0.5,92.0,10.0,505.0,102.0,61.0,31.0,0.0,734.72,174.6966666666667,Very Hard,False,False,False,False,False,False,False,False,False,Unsafe,1
352,Bihar,Begusarai,Dariarpur,86.2265,25.3646,2023,7.65,831.0,0.0,305.0,64.0,0.32,70.0,1.0,380.0,56.0,58.0,14.0,5.0,531.84,131.98666666666665,Very Hard,False,False,False,False,False,False,False,False,False,Unsafe,1
353,Bihar,Begusarai,Matihani,86.1638,25.3682,2023,7.88,950.0,0.0,348.0,67.0,0.41,90.0,2.0,405.0,112.0,30.0,25.0,11.0,608.0,140.79333333333332,Very Hard,False,False,False,False,False,False,False,False,False,Unsafe,1
354,Bihar,Begusarai,Badalpura,86.1573,25.3792,2023,7.98,830.0,0.0,403.0,36.0,0.18,29.0,7.0,380.0,64.0,53.0,12.0,5.0,531.2,132.09333333333333,Very Hard,False,False,False,False,False,False,False,False,False,Unsafe,1
355,Bihar,Begusarai,Heera Tola,86.4432,25.4626,2023,7.97,848.0,0.0,366.0,43.0,0.36,57.0,7.0,380.0,62.0,55.0,14.0,10.0,542.72,132.15,Very Hard,False,False,False,False,False,False,False,False,False,Unsafe,1
356,Bihar,Begusarai,New Jafar,86.3754,25.426,2023,8.01,1042.0,0.0,427.0,57.0,0.79,63.0,27.0,465.0,86.0,61.0,21.0,10.0,666.88,161.14333333333335,Very Hard,False,False,False,False,False,False,False,False,False,Unsafe,1
357,Bihar,Begusarai,Raghunathpur,86.4424,25.4414,2023,7.75,1213.0,0.0,531.0,85.0,0.21,38.0,17.0,485.0,114.0,49.0,45.0,17.0,776.32,168.29333333333332,Very Hard,False,False,False,True,False,False,False,False,True,Unsafe,1
358,Bihar,Begusarai,Sabdalpur,86.4343,25.4256,2023,7.82,829.0,0.0,384.0,36.0,0.28,26.0,24.0,370.0,58.0,55.0,14.0,12.0,530.5600000000001,128.70333333333335,Very Hard,False,False,False,False,False,False,False,False,False,Unsafe,1
359,Bihar,Begusarai,Bintoli     * Kalayanpur,86.4179,25.426,2023,7.94,987.0,0.0,439.0,50.0,0.21,43.0,21.0,390.0,80.0,46.0,46.0,5.0,631.6800000000001,135.93666666666667,Very Hard,False,False,False,False,False,False,False,False,False,Unsafe,1
360,Bihar,Begusarai,Teghra,85.9483,25.4832,2023,7.92,924.0,0.0,421.0,57.0,0.37,37.0,1.0,405.0,76.0,52.0,22.0,6.0,591.36,140.72,Very Hard,False,False,False,False,False,False,False,False,False,Unsafe,1
361,Bihar,Begusarai,Dularpur,85.9242,25.5137,2023,7.74,768.0,0.0,403.0,21.0,0.28,24.0,0.0,360.0,62.0,50.0,10.0,0.0,491.52,125.14,Very Hard,False,False,False,False,False,False,False,False,False,Unsafe,1
362,Bihar,Bhagalpur,Bhagalpur,86.9792,25.2292,2023,7.68,741.0,0.0,342.0,21.0,0.91,55.0,2.0,295.0,42.0,46.0,34.0,1.0,474.24,103.36333333333333,Hard,False,False,False,False,False,False,False,False,False,Unsafe,1
363,Bihar,Bhagalpur,Bihpur,86.9416,25.3916,2023,7.81,661.0,0.0,214.0,89.0,0.09,26.0,1.0,285.0,60.0,33.0,21.0,1.0,423.04,99.80666666666667,Hard,False,False,False,False,False,False,False,False,False,Unsafe,1
364,Bihar,Bhagalpur,Marwa,86.9221,25.3988,2023,7.76,686.0,0.0,262.0,75.0,0.0,20.0,4.0,305.0,60.0,38.0,16.0,1.0,439.04,106.54,Very Hard,False,False,False,False,False,False,False,False,False,Unsafe,1
365,Bihar,Bhagalpur,Harchandpur,87.3361,25.2394,2023,7.85,1301.0,0.0,360.0,178.0,0.43,95.0,3.0,440.0,68.0,66.0,91.0,11.0,832.64,153.62,Very Hard,False,False,False,False,False,False,False,False,False,Unsafe,1
366,Bihar,Bhagalpur,Jagnathpur,87.2808,25.2642,2023,8.05,920.0,0.0,360.0,50.0,0.38,60.0,40.0,350.0,56.0,51.0,49.0,1.0,588.8000000000001,122.41666666666667,Very Hard,False,False,False,False,False,False,False,False,False,Unsafe,1
367,Bihar,Bhagalpur,Jagdishpur,86.9833,25.1625,2023,7.73,1212.0,0.0,488.0,89.0,0.29,79.0,0.0,330.0,30.0,62.0,122.0,7.0,775.6800000000001,116.61666666666667,Very Hard,False,False,False,False,False,False,False,False,False,Unsafe,1
368,Bihar,Bhagalpur,Ghoga,87.1651,25.1552,2023,7.94,1505.0,0.0,305.0,277.0,0.25,101.0,9.0,520.0,118.0,55.0,100.0,12.0,963.2,180.99666666666667,Very Hard,False,True,False,False,True,False,False,False,True,Unsafe,1
369,Bihar,Bhagalpur,Kahalgaon,87.2417,25.2542,2023,7.64,873.0,0.0,256.0,85.0,0.25,66.0,44.0,265.0,56.0,30.0,71.0,15.0,558.72,93.79,Hard,False,False,False,False,False,False,False,False,False,Unsafe,1
370,Bihar,Bhagalpur,Ramchandrapur Navtoliya,86.89,25.2367,2023,8.03,1684.0,0.0,427.0,206.0,0.45,101.0,119.0,605.0,68.0,106.0,101.0,15.0,1077.76,209.95666666666668,Very Hard,False,True,False,False,False,False,False,True,True,Unsafe,1
371,Bihar,Bhagalpur,Naugachia,87.1068,25.3858,2023,7.68,927.0,0.0,262.0,146.0,0.26,40.0,4.0,365.0,58.0,53.0,44.0,1.0,593.28,127.31666666666666,Very Hard,False,False,False,False,False,False,False,False,False,Unsafe,1
372,Bihar,Bhagalpur,Pirpainti,87.4194,25.8363,2023,8.18,1112.0,0.0,348.0,135.0,0.31,76.0,1.0,345.0,56.0,50.0,93.0,7.0,711.6800000000001,121.43333333333334,Very Hard,False,False,False,False,False,False,False,False,False,Unsafe,1
373,Bihar,Bhagalpur,Madrauni Chowk,87.1713,25.3977,2023,7.94,774.0,0.0,250.0,107.0,0.28,30.0,0.0,320.0,50.0,47.0,29.0,1.0,495.36,111.89333333333333,Very Hard,False,False,False,False,False,False,False,False,False,Unsafe,1
374,Bihar,Bhagalpur,Nayatola Agarpur,87.0436,25.1811,2023,8.09,1215.0,0.0,378.0,135.0,0.25,75.0,32.0,315.0,52.0,45.0,126.0,15.0,777.6,111.74666666666667,Very Hard,False,False,False,False,False,False,False,False,False,Unsafe,1
375,Bihar,Bhagalpur,Sabaur,87.046,25.246,2023,7.94,1505.0,0.0,580.0,99.0,0.49,117.0,15.0,460.0,126.0,35.0,122.0,20.0,963.2,160.99666666666667,Very Hard,False,True,False,True,False,False,False,False,True,Unsafe,1
376,Bihar,Bhagalpur,Shahkund,86.8125,25.175,2023,7.91,842.0,0.0,201.0,99.0,0.75,81.0,37.0,265.0,70.0,22.0,65.0,14.0,538.88,93.77666666666666,Hard,False,False,False,False,False,False,False,False,False,Unsafe,1
377,Bihar,Bhagalpur,Sonhaula,87.1622,25.0897,2023,7.85,665.0,0.0,281.0,43.0,0.31,41.0,4.0,230.0,66.0,16.0,47.0,2.0,425.6,81.5,Hard,False,False,False,False,False,False,False,False,False,Safe,0
378,Bihar,Bhagalpur,Akbarnagar,86.8083,25.225,2023,8.02,955.0,0.0,238.0,128.0,0.58,67.0,37.0,390.0,98.0,35.0,38.0,2.0,611.2,135.85666666666665,Very Hard,False,False,False,False,False,False,False,False,False,Unsafe,1
379,Bihar,Bhagalpur,Sultanganj,86.7,25.2417,2023,7.76,1021.0,0.0,329.0,85.0,0.43,80.0,46.0,310.0,78.0,28.0,79.0,22.0,653.44,109.32333333333334,Very Hard,False,False,False,False,False,False,False,True,True,Unsafe,1
380,Bihar,Bhojpur,Haswadih,84.4027,25.407,2023,8.12,671.0,0.0,232.0,71.0,0.59,32.0,10.0,270.0,56.0,32.0,29.0,5.0,429.44,94.94333333333333,Hard,False,False,False,False,False,False,False,False,False,Unsafe,1
381,Bihar,Bhojpur,Jarawarpur Milki,84.5342,25.5953,2023,8.01,582.0,0.0,287.0,21.0,0.48,20.0,1.0,205.0,50.0,19.0,39.0,4.0,372.48,72.94333333333334,Hard,False,False,False,False,False,False,False,False,False,Safe,0
382,Bihar,Bhojpur,Milki (Milki Dera),84.625,25.6751,2023,7.96,436.0,0.0,226.0,18.0,0.95,7.0,0.0,195.0,18.0,36.0,9.0,1.0,279.04,69.10666666666667,Hard,False,False,False,False,False,False,False,False,False,Unsafe,1
383,Bihar,Bhojpur,Chandawa,84.6371,25.5603,2023,8.18,449.0,0.0,207.0,25.0,0.55,9.0,6.0,185.0,36.0,23.0,16.0,3.0,287.36,65.89,Hard,False,False,False,False,False,False,False,False,False,Safe,0
384,Bihar,Bhojpur,Bakhorapur,84.6918,25.6681,2023,8.06,428.0,0.0,195.0,25.0,0.82,11.0,4.0,180.0,48.0,15.0,15.0,2.0,273.92,64.11333333333333,Hard,False,False,False,False,False,False,False,False,False,Safe,0
385,Bihar,Bhojpur,Balua,84.5599,25.6607,2023,7.99,841.0,0.0,378.0,28.0,0.6,52.0,21.0,335.0,62.0,44.0,36.0,5.0,538.24,117.13333333333333,Very Hard,False,False,False,False,False,False,False,False,False,Unsafe,1
386,Bihar,Bhojpur,Barahara,84.7291,25.683,2023,7.88,645.0,0.0,214.0,53.0,0.54,47.0,24.0,215.0,40.0,28.0,49.0,3.0,412.8,76.44333333333334,Hard,False,False,False,False,False,False,False,False,False,Safe,0
387,Bihar,Bhojpur,Baruna,84.6041,25.3192,2023,8.11,798.0,0.0,250.0,82.0,0.4,61.0,21.0,325.0,78.0,32.0,32.0,2.0,510.72,113.69666666666666,Very Hard,False,False,False,False,False,False,False,False,False,Unsafe,1
388,Bihar,Bhojpur,Dhusaria,84.7735,25.6714,2023,7.94,829.0,0.0,207.0,114.0,0.91,50.0,35.0,315.0,58.0,41.0,44.0,7.0,530.5600000000001,110.41000000000001,Very Hard,False,False,False,False,False,False,False,False,False,Unsafe,1
389,Bihar,Bhojpur,Ekauna,84.7383,25.6872,2023,8.11,664.0,0.0,250.0,67.0,0.63,29.0,4.0,285.0,60.0,33.0,20.0,3.0,424.96000000000004,99.91666666666667,Hard,False,False,False,False,False,False,False,False,False,Unsafe,1
390,Bihar,Bhojpur,Farhda,84.6562,25.685,2023,8.08,661.0,0.0,226.0,57.0,0.6,44.0,21.0,265.0,58.0,29.0,31.0,1.0,423.04,93.23,Hard,False,False,False,False,False,False,False,False,False,Safe,0
391,Bihar,Bhojpur,Jagatpur,84.5981,25.6749,2023,8.13,427.0,0.0,195.0,28.0,0.88,8.0,1.0,195.0,40.0,23.0,9.0,2.0,273.28000000000003,69.13333333333334,Hard,False,False,False,False,False,False,False,False,False,Safe,0
392,Bihar,Bhojpur,Simariya,84.7239,25.6724,2023,8.13,426.0,0.0,214.0,18.0,0.71,12.0,1.0,185.0,36.0,23.0,12.0,1.0,272.64,65.79666666666667,Hard,False,False,False,False,False,False,False,False,False,Safe,0
393,Bihar,Bhojpur,Bihiya (Dogra),84.4709,25.5842,2023,8.15,652.0,0.0,256.0,50.0,0.61,36.0,12.0,265.0,56.0,30.0,26.0,3.0,417.28000000000003,93.22333333333334,Hard,False,False,False,False,False,False,False,False,False,Safe,0
394,Bihar,Bhojpur,Garhani (Nahsi),84.558,25.421,2023,7.98,467.0,0.0,226.0,18.0,0.98,9.0,16.0,210.0,24.0,36.0,9.0,1.0,298.88,74.21666666666667,Hard,False,False,False,False,False,False,False,False,False,Unsafe,1
395,Bihar,Bhojpur,Dulaur,84.4435,25.4752,2023,7.98,411.0,0.0,153.0,32.0,0.61,16.0,25.0,135.0,24.0,18.0,32.0,3.0,263.04,49.03,Moderately Hard,False,False,False,False,False,False,False,False,False,Safe,0
396,Bihar,Bhojpur,Jagdishpur1,84.4156,25.4753,2023,7.87,515.0,0.0,201.0,53.0,0.63,13.0,5.0,200.0,40.0,24.0,24.0,2.0,329.6,71.00666666666667,Hard,False,False,False,False,False,False,False,False,False,Safe,0
397,Bihar,Bhojpur,Inglishpur,84.7837,25.6458,2023,7.93,387.0,0.0,183.0,18.0,0.71,11.0,9.0,160.0,26.0,23.0,14.0,1.0,247.68,57.26666666666667,Hard,False,False,False,False,False,False,False,False,False,Safe,0
398,Bihar,Bhojpur,Kulharia,84.7736,25.5753,2023,8.18,459.0,0.0,122.0,50.0,0.65,34.0,26.0,170.0,22.0,28.0,28.0,1.0,293.76,60.92333333333334,Hard,False,False,False,False,False,False,False,False,False,Safe,0
399,Bihar,Bhojpur,Lodhipur,84.7341,25.5119,2023,7.81,841.0,0.0,275.0,82.0,0.53,54.0,30.0,330.0,88.0,27.0,39.0,3.0,538.24,115.40666666666668,Very Hard,False,False,False,False,False,False,False,False,False,Unsafe,1
400,Bihar,Bhojpur,Mokhlisa,84.7501,25.6035,2023,8.05,706.0,0.0,183.0,121.0,0.48,20.0,10.0,285.0,28.0,52.0,30.0,3.0,451.84000000000003,100.03666666666668,Hard,False,False,False,False,False,False,False,False,False,Unsafe,1
401,Bihar,Bhojpur,Muhammadpur,84.7878,25.615,2023,8.01,646.0,0.0,207.0,57.0,0.63,62.0,12.0,270.0,66.0,26.0,21.0,5.0,413.44,94.82333333333334,Hard,False,False,False,False,False,False,False,False,False,Safe,0
402,Bihar,Bhojpur,Pachrukhiya,84.7889,25.6527,2023,8.04,770.0,0.0,232.0,82.0,0.85,59.0,18.0,335.0,70.0,39.0,23.0,2.0,492.8,116.91333333333334,Very Hard,False,False,False,False,False,False,False,False,False,Unsafe,1
403,Bihar,Bhojpur,Sakkadi,84.7538,25.5841,2023,8.14,449.0,0.0,165.0,39.0,0.96,27.0,0.0,185.0,22.0,32.0,19.0,1.0,287.36,65.87666666666667,Hard,False,False,False,False,False,False,False,False,False,Unsafe,1
404,Bihar,Bhojpur,Songhata,84.7631,25.6086,2023,7.84,1155.0,0.0,397.0,124.0,0.53,48.0,30.0,400.0,82.0,47.0,65.0,29.0,739.2,139.79666666666665,Very Hard,False,False,False,False,False,False,False,False,False,Unsafe,1
405,Bihar,Bhojpur,Birampur,84.725,25.6035,2023,8.18,778.0,0.0,311.0,46.0,0.51,62.0,5.0,340.0,78.0,35.0,20.0,3.0,497.92,118.65333333333332,Very Hard,False,False,False,False,False,False,False,False,False,Unsafe,1
406,Bihar,Bhojpur,Giddha,84.747,25.5868,2023,8.09,488.0,0.0,207.0,36.0,0.58,17.0,2.0,230.0,42.0,30.0,7.0,1.0,312.32,80.99,Hard,False,False,False,False,False,False,False,False,False,Safe,0
407,Bihar,Bhojpur,Nonar,84.3808,25.2864,2023,7.94,303.0,0.0,134.0,21.0,0.83,11.0,0.0,110.0,34.0,6.0,17.0,3.0,193.92000000000002,40.32333333333333,Moderately Hard,False,False,False,False,False,False,False,False,False,Safe,0
408,Bihar,Bhojpur,Guljarpur,84.5973,25.26,2023,8.03,380.0,0.0,177.0,21.0,0.35,11.0,6.0,165.0,30.0,22.0,10.0,1.0,243.20000000000002,58.94333333333333,Hard,False,False,False,False,False,False,False,False,False,Safe,0
409,Bihar,Bhojpur,Kori,84.6891,25.3951,2023,7.85,1033.0,0.0,329.0,117.0,0.6,46.0,42.0,405.0,90.0,44.0,49.0,3.0,661.12,141.06,Very Hard,False,False,False,False,False,False,False,False,False,Unsafe,1
410,Bihar,Bhojpur,Nasratpur,84.75,25.4492,2023,7.75,581.0,0.0,214.0,43.0,0.6,34.0,21.0,270.0,62.0,28.0,10.0,1.0,371.84000000000003,94.52,Hard,False,False,False,False,False,False,False,False,False,Safe,0
411,Bihar,Bhojpur,Pauna,84.6288,25.4066,2023,8.05,1359.0,0.0,415.0,170.0,1.05,74.0,27.0,490.0,104.0,56.0,69.0,28.0,869.76,170.54666666666665,Very Hard,False,False,False,False,False,False,False,False,False,Unsafe,1
412,Bihar,Bhojpur,Sandesh,84.738,25.4057,2023,7.93,1544.0,0.0,506.0,217.0,0.81,44.0,3.0,590.0,130.0,64.0,68.0,27.0,988.16,204.45666666666668,Very Hard,False,True,False,True,False,False,False,False,True,Unsafe,1
413,Bihar,Bhojpur,Karnempur,84.3614,25.6675,2023,7.97,1232.0,0.0,384.0,149.0,0.55,50.0,51.0,435.0,92.0,50.0,67.0,25.0,788.48,151.76333333333335,Very Hard,False,False,False,False,False,False,False,True,True,Unsafe,1
414,Bihar,Bhojpur,Akrunj,84.396,25.2063,2023,8.18,340.0,0.0,159.0,11.0,0.62,10.0,15.0,145.0,26.0,19.0,12.0,3.0,217.6,52.193333333333335,Moderately Hard,False,False,False,False,False,False,False,False,False,Safe,0
415,Bihar,Bhojpur,Kusumhi,84.3681,25.23,2023,8.21,361.0,0.0,159.0,18.0,0.93,16.0,4.0,155.0,16.0,28.0,11.0,3.0,231.04,55.60666666666666,Hard,False,False,False,False,False,False,False,False,False,Safe,0
416,Bihar,Bhojpur,Harnath Kundi,84.572,25.5725,2023,7.99,636.0,0.0,293.0,36.0,0.46,21.0,3.0,255.0,58.0,27.0,29.0,2.0,407.04,89.78333333333335,Hard,False,False,False,False,False,False,False,False,False,Safe,0
417,Bihar,Bhojpur,Kasap,84.6072,25.4754,2023,8.11,655.0,0.0,268.0,46.0,0.51,26.0,15.0,285.0,28.0,52.0,20.0,1.0,419.2,99.88666666666667,Hard,False,False,False,False,False,False,False,False,False,Unsafe,1
418,Bihar,Bhojpur,Sasaram Chota,84.5248,25.5696,2023,8.07,437.0,0.0,195.0,36.0,0.43,8.0,3.0,175.0,40.0,18.0,19.0,1.0,279.68,62.48,Hard,False,False,False,False,False,False,False,False,False,Safe,0
419,Bihar,Bhojpur,Udwantnagar,84.6253,25.5002,2023,7.94,1120.0,0.0,372.0,156.0,0.63,26.0,5.0,410.0,120.0,27.0,58.0,20.0,716.8000000000001,143.04666666666665,Very Hard,False,False,False,False,False,False,False,False,False,Unsafe,1
420,Bihar,Buxar,Bagen Bazar,84.2928,25.5014,2023,8.18,426.0,0.0,207.0,14.0,0.66,10.0,15.0,150.0,46.0,9.0,28.0,1.0,272.64,54.14666666666667,Hard,False,False,False,False,False,False,False,False,False,Safe,0
421,Bihar,Buxar,Hathilpur,84.3178,25.6323,2023,8.04,421.0,0.0,195.0,18.0,0.07,9.0,20.0,180.0,58.0,9.0,11.0,9.0,269.44,64.08333333333333,Hard,False,False,False,False,False,False,False,False,False,Safe,0
422,Bihar,Buxar,Jugia Dera,84.2552,25.5934,2023,7.84,443.0,0.0,238.0,14.0,0.49,3.0,4.0,100.0,38.0,1.0,55.0,1.0,283.52,37.42333333333333,Moderately Hard,False,False,False,False,False,False,False,False,False,Safe,0
423,Bihar,Buxar,Khochariwan,84.2738,25.5233,2023,7.82,475.0,0.0,244.0,14.0,0.72,4.0,16.0,180.0,46.0,16.0,25.0,1.0,304.0,64.19,Hard,False,False,False,False,False,False,False,False,False,Safe,0
424,Bihar,Buxar,Mharajgunj,84.3406,25.6098,2023,7.94,562.0,0.0,287.0,21.0,0.44,7.0,11.0,210.0,50.0,21.0,31.0,1.0,359.68,74.52,Hard,False,False,False,False,False,False,False,False,False,Safe,0
425,Bihar,Buxar,Raghunathpur,84.3024,25.5666,2023,7.88,1300.0,0.0,482.0,138.0,0.44,39.0,28.0,285.0,84.0,18.0,164.0,6.0,832.0,101.96,Hard,False,False,False,False,False,False,False,False,False,Unsafe,1
426,Bihar,Buxar,Brahmpur,84.3061,25.6078,2023,7.93,731.0,0.0,293.0,64.0,0.39,23.0,16.0,230.0,58.0,21.0,60.0,2.0,467.84000000000003,81.74666666666667,Hard,False,False,False,False,False,False,False,False,False,Safe,0
427,Bihar,Buxar,Buxar,83.9794,25.5643,2023,8.03,555.0,0.0,299.0,11.0,0.56,10.0,9.0,145.0,50.0,5.0,59.0,2.0,355.2,52.85999999999999,Moderately Hard,False,False,False,False,False,False,False,False,False,Safe,0
428,Bihar,Buxar,Churamanpur Dw,84.0237,25.5877,2023,7.95,529.0,0.0,256.0,32.0,0.06,10.0,1.0,150.0,46.0,9.0,50.0,4.0,338.56,54.413333333333334,Hard,False,False,False,False,False,False,False,False,False,Safe,0
429,Bihar,Buxar,Danikutia,83.932,25.5467,2023,7.85,667.0,0.0,311.0,39.0,0.54,17.0,8.0,225.0,60.0,18.0,48.0,1.0,426.88,79.84,Hard,False,False,False,False,False,False,False,False,False,Safe,0
430,Bihar,Buxar,Dudharchak,84.0557,25.6174,2023,7.68,526.0,0.0,299.0,11.0,0.14,4.0,1.0,185.0,50.0,15.0,34.0,3.0,336.64,65.98,Hard,False,False,False,False,False,False,False,False,False,Safe,0
431,Bihar,Buxar,Kritpur,83.9416,25.5487,2023,7.7,1105.0,0.0,525.0,67.0,0.8,20.0,9.0,300.0,44.0,46.0,106.0,15.0,707.2,106.25,Very Hard,False,False,False,True,False,False,False,False,True,Unsafe,1
432,Bihar,Buxar,Mishrvalia,83.9145,25.534,2023,7.93,1758.0,0.0,567.0,259.0,0.7,20.0,36.0,640.0,108.0,90.0,107.0,4.0,1125.1200000000001,221.83666666666667,Very Hard,False,True,False,True,True,False,False,False,True,Unsafe,1
433,Bihar,Buxar,Ramobariya,84.0553,25.6067,2023,7.84,619.0,0.0,354.0,11.0,0.26,6.0,1.0,160.0,52.0,7.0,67.0,3.0,396.16,58.01,Hard,False,False,False,False,False,False,False,False,False,Safe,0
434,Bihar,Buxar,Thodagaon,83.9491,25.5527,2023,8.05,499.0,0.0,250.0,18.0,0.44,12.0,10.0,140.0,46.0,6.0,48.0,2.0,319.36,51.01333333333333,Moderately Hard,False,False,False,False,False,False,False,False,False,Safe,0
435,Bihar,Buxar,Bhariyar,84.24,25.609,2023,7.96,400.0,0.0,171.0,18.0,0.15,17.0,23.0,155.0,50.0,7.0,16.0,6.0,256.0,55.653333333333336,Hard,False,False,False,False,False,False,False,False,False,Safe,0
436,Bihar,Buxar,Chaungai Sundarsingh,84.2384,25.473,2023,7.96,505.0,0.0,262.0,18.0,0.44,11.0,2.0,150.0,30.0,18.0,46.0,1.0,323.2,54.336666666666666,Hard,False,False,False,False,False,False,False,False,False,Safe,0
437,Bihar,Buxar,Chausa,83.89,25.5107,2023,8.21,1008.0,0.0,519.0,28.0,0.56,18.0,20.0,210.0,32.0,32.0,101.0,58.0,645.12,76.09666666666666,Hard,False,False,False,True,False,False,False,False,True,Unsafe,1
438,Bihar,Buxar,Dumraon,84.1388,25.5813,2023,8.13,553.0,0.0,232.0,43.0,0.41,14.0,12.0,125.0,46.0,2.0,70.0,1.0,353.92,46.22,Moderately Hard,False,False,False,False,False,False,False,False,False,Safe,0
439,Bihar,Buxar,"Dumrawn Thatheri Bazar, Dakhin Tola",84.1503,25.549,2023,7.97,419.0,0.0,226.0,14.0,0.46,2.0,4.0,150.0,48.0,7.0,25.0,2.0,268.16,54.053333333333335,Hard,False,False,False,False,False,False,False,False,False,Safe,0
440,Bihar,Buxar,Mahila,84.0395,25.4698,2023,7.71,601.0,0.0,305.0,21.0,0.54,7.0,11.0,140.0,48.0,5.0,75.0,1.0,384.64,51.24,Moderately Hard,False,False,False,False,False,False,False,False,False,Safe,0
441,Bihar,Buxar,Kesath ( Pokhratola),84.2489,25.4125,2023,8.01,3098.0,0.0,970.0,497.0,0.46,43.0,8.0,845.0,106.0,141.0,272.0,91.0,1982.72,294.66333333333336,Very Hard,False,True,False,True,True,False,False,False,True,Unsafe,1
442,Bihar,Buxar,Athar Bintoli,84.1852,25.4414,2023,7.88,405.0,0.0,207.0,18.0,0.24,4.0,3.0,125.0,40.0,6.0,33.0,1.0,259.2,45.64333333333334,Moderately Hard,False,False,False,False,False,False,False,False,False,Safe,0
443,Bihar,Buxar,Rajpur,84.1292,25.6847,2023,8.02,3055.0,0.0,830.0,543.0,0.71,44.0,49.0,840.0,190.0,89.0,290.0,43.0,1955.2,292.8566666666667,Very Hard,False,True,False,True,True,False,False,True,True,Unsafe,1
444,Bihar,Buxar,Barka Rajpur,84.1292,25.6847,2023,8.05,695.0,0.0,336.0,43.0,0.21,0.0,18.0,260.0,70.0,21.0,36.0,5.0,444.8,91.66666666666667,Hard,False,False,False,False,False,False,False,False,False,Safe,0
445,Bihar,Buxar,Dumri,84.1831,25.634,2023,8.17,427.0,0.0,220.0,18.0,0.16,7.0,3.0,145.0,36.0,13.0,28.0,4.0,273.28000000000003,52.48,Moderately Hard,False,False,False,False,False,False,False,False,False,Safe,0
446,Bihar,Buxar,Durasan,84.1735,25.6094,2023,7.93,372.0,0.0,177.0,21.0,0.23,11.0,1.0,125.0,36.0,9.0,26.0,2.0,238.08,45.550000000000004,Moderately Hard,False,False,False,False,False,False,False,False,False,Safe,0
447,Bihar,Buxar,Karathar,84.184,25.651,2023,8.03,540.0,0.0,201.0,39.0,0.13,24.0,35.0,205.0,40.0,26.0,24.0,9.0,345.6,72.81,Hard,False,False,False,False,False,False,False,False,False,Safe,0
448,Bihar,Buxar,Manikpur,84.0929,25.6725,2023,8.13,390.0,0.0,214.0,11.0,0.22,1.0,1.0,145.0,50.0,5.0,21.0,5.0,249.6,52.343333333333334,Moderately Hard,False,False,False,False,False,False,False,False,False,Safe,0
449,Bihar,Buxar,Neazipur,84.1542,25.6706,2023,7.99,416.0,0.0,232.0,11.0,0.16,0.0,8.0,155.0,46.0,10.0,23.0,4.0,266.24,55.71666666666667,Hard,False,False,False,False,False,False,False,False,False,Safe,0
450,Bihar,Buxar,Sohiar,84.158,25.662,2023,7.87,829.0,0.0,305.0,78.0,0.07,23.0,39.0,225.0,58.0,19.0,76.0,17.0,530.5600000000001,80.38666666666667,Hard,False,False,False,False,False,False,False,False,False,Unsafe,1
451,Bihar,Buxar,Kopwa,84.1673,25.5018,2023,7.85,250.0,0.0,122.0,14.0,0.26,2.0,5.0,105.0,40.0,1.0,8.0,0.0,160.0,38.449999999999996,Moderately Hard,False,False,False,False,False,False,False,False,False,Safe,0
452,Bihar,Darbhanga,Bilaspur,85.8793,26.0211,2023,8.29,504.0,0.0,277.0,7.0,0.77,9.0,3.0,160.0,34.0,18.0,49.0,2.0,322.56,57.776666666666664,Hard,False,False,False,False,False,False,False,False,False,Safe,0
453,Bihar,Darbhanga,Motipur Antour,86.1668,26.066,2023,8.18,592.0,0.0,326.0,7.0,0.71,10.0,5.0,115.0,20.0,16.0,80.0,2.0,378.88,43.03333333333333,Moderately Hard,False,False,False,False,False,False,False,False,False,Safe,0
454,Bihar,Darbhanga,Baheri,86.0508,25.9507,2023,8.27,823.0,0.0,387.0,50.0,0.3,10.0,5.0,255.0,50.0,32.0,64.0,2.0,526.72,90.5,Hard,False,False,False,False,False,False,False,False,False,Unsafe,1
455,Bihar,Darbhanga,Bithauli,86.0875,26.0111,2023,8.25,625.0,0.0,388.0,7.0,0.53,7.0,6.0,90.0,24.0,7.0,106.0,1.0,400.0,34.833333333333336,Moderately Hard,False,False,False,False,False,False,False,False,False,Safe,0
456,Bihar,Darbhanga,Jorja,85.989,26.0125,2023,8.14,733.0,0.0,412.0,11.0,0.39,12.0,6.0,125.0,24.0,16.0,114.0,1.0,469.12,46.82333333333333,Moderately Hard,False,False,False,False,False,False,False,False,False,Safe,0
457,Bihar,Darbhanga,Bahera,86.132,26.0752,2023,8.21,1194.0,0.0,510.0,117.0,1.18,43.0,9.0,305.0,44.0,47.0,114.0,1.0,764.16,108.38333333333333,Very Hard,False,False,False,True,False,False,False,False,True,Unsafe,1
458,Bihar,Darbhanga,Bheruk,86.1653,26.0527,2023,8.15,1290.0,0.0,504.0,106.0,1.02,87.0,28.0,380.0,20.0,80.0,114.0,2.0,825.6,133.68333333333334,Very Hard,False,False,False,True,False,False,False,False,True,Unsafe,1
459,Bihar,Darbhanga,Afzala Balia,86.2313,25.9297,2023,8.39,1406.0,6.0,677.0,89.0,0.68,30.0,8.0,320.0,56.0,44.0,124.0,6.0,899.84,114.14999999999999,Very Hard,False,False,False,True,False,False,False,False,True,Unsafe,1
460,Bihar,Darbhanga,Darbhanga,85.9088,26.1696,2023,8.25,1035.0,0.0,449.0,85.0,0.5,23.0,5.0,260.0,52.0,32.0,109.0,17.0,662.4,92.86666666666667,Hard,False,False,False,False,False,False,False,False,False,Unsafe,1
